[
	{
		"name":"卡塔尔",
		"lon":"51.15016769",
		"lat":"25.19097583",
		"male":"74.96",
		"female":"25.04"
	},
	{
		"name":"阿联酋",
		"lon":"53.97209441",
		"lat":"23.36702071",
		"male":"68.94",
		"female":"31.06"
	},
	{
		"name":"阿曼",
		"lon":"56.54430442",
		"lat":"20.21062776",
		"male":"65.92",
		"female":"34.08"
	},
	{
		"name":"巴林",
		"lon":"50.53193091",
		"lat":"26.11976944",
		"male":"64.86",
		"female":"35.14"
	},
	{
		"name":"马尔代夫",
		"lon":"73.4629725",
		"lat":"-0.24154223",
		"male":"63.14",
		"female":"36.86"
	},
	{
		"name":"科威特",
		"lon":"48.02932856",
		"lat":"29.28269042",
		"male":"61.32",
		"female":"38.68"
	},
	{
		"name":"沙特阿拉伯",
		"lon":"43.21644807",
		"lat":"22.77276211",
		"male":"57.83",
		"female":"42.17"
	},
	{
		"name":"赤道几内亚",
		"lon":"10.2272019",
		"lat":"1.25572734",
		"male":"55.64",
		"female":"44.36"
	},
	{
		"name":"不丹",
		"lon":"90.57602868",
		"lat":"27.4963017",
		"male":"53.21",
		"female":"46.79"
	},
	{
		"name":"吉布提",
		"lon":"42.64426149",
		"lat":"11.68274719",
		"male":"52.47",
		"female":"47.53"
	},
	{
		"name":"新加坡",
		"lon":"103.81540679",
		"lat":"1.3477903",
		"male":"52.34",
		"female":"47.66"
	},
	{
		"name":"印度",
		"lon":"78.84235355",
		"lat":"20.53923029",
		"male":"51.96",
		"female":"48.04"
	},
	{
		"name":"文莱",
		"lon":"114.5676666",
		"lat":"4.50611111",
		"male":"51.85",
		"female":"48.15"
	},
	{
		"name":"萨摩亚",
		"lon":"-171.73148493",
		"lat":"-13.83931861",
		"male":"51.77",
		"female":"48.23"
	},
	{
		"name":"巴基斯坦",
		"lon":"69.46850168",
		"lat":"29.33984575",
		"male":"51.46",
		"female":"48.54"
	},
	{
		"name":"马来西亚",
		"lon":"102.1632695",
		"lat":"3.4543702",
		"male":"51.36",
		"female":"48.64"
	},
	{
		"name":"阿富汗",
		"lon":"65.79911083",
		"lat":"33.8923245",
		"male":"51.3",
		"female":"48.7"
	},
	{
		"name":"中国",
		"lon":"115.388333",
		"lat":"39.928889",
		"male":"51.27",
		"female":"48.73"
	},
	{
		"name":"塞舌尔",
		"lon":"55.45171756",
		"lat":"-4.68445364",
		"male":"51.25",
		"female":"48.75"
	},
	{
		"name":"巴布亚新几内亚",
		"lon":"141.93246642",
		"lat":"-6.74711949",
		"male":"51.06",
		"female":"48.94"
	},
	{
		"name":"阿尔巴尼亚",
		"lon":"20.07914673",
		"lat":"40.82970135",
		"male":"50.89",
		"female":"49.11"
	},
	{
		"name":"加蓬",
		"lon":"11.01644662",
		"lat":"-1.78264571",
		"male":"50.88",
		"female":"49.12"
	},
	{
		"name":"所罗门群岛",
		"lon":"159.99245377",
		"lat":"-9.64815255",
		"male":"50.85",
		"female":"49.15"
	},
	{
		"name":"密克罗尼西亚联邦",
		"lon":"158.258329",
		"lat":"6.78638109",
		"male":"50.83",
		"female":"49.17"
	},
	{
		"name":"巴拉圭",
		"lon":"-58.9265692",
		"lat":"-23.95325217",
		"male":"50.8",
		"female":"49.2"
	},
	{
		"name":"加纳",
		"lon":"-1.57841477",
		"lat":"6.67032426",
		"male":"50.69",
		"female":"49.31"
	},
	{
		"name":"尼日利亚",
		"lon":"7.96389206",
		"lat":"8.74325859",
		"male":"50.69",
		"female":"49.31"
	},
	{
		"name":"瓦努阿图",
		"lon":"167.60484059",
		"lat":"-16.48991016",
		"male":"50.68",
		"female":"49.32"
	},
	{
		"name":"约旦",
		"lon":"36.12733001",
		"lat":"30.48298732",
		"male":"50.65",
		"female":"49.35"
	},
	{
		"name":"斐济",
		"lon":"177.74917257",
		"lat":"-17.9773054",
		"male":"50.62",
		"female":"49.38"
	},
	{
		"name":"伊拉克",
		"lon":"43.86088768",
		"lat":"32.42379955",
		"male":"50.62",
		"female":"49.38"
	},
	{
		"name":"法属玻利尼西亚",
		"lon":"-149.53951134",
		"lat":"-17.70571749",
		"male":"50.62",
		"female":"49.38"
	},
	{
		"name":"圣文森特和格纳丁斯",
		"lon":"-61.26103589",
		"lat":"13.18576217",
		"male":"50.62",
		"female":"49.38"
	},
	{
		"name":"卢森堡",
		"lon":"6.19753484",
		"lat":"49.75883023",
		"male":"50.6",
		"female":"49.4"
	},
	{
		"name":"挪威",
		"lon":"8.40799822",
		"lat":"60.12367222",
		"male":"50.57",
		"female":"49.43"
	},
	{
		"name":"孟加拉国",
		"lon":"89.55503544",
		"lat":"24.28464895",
		"male":"50.53",
		"female":"49.47"
	},
	{
		"name":"东帝汶",
		"lon":"125.69811778",
		"lat":"-8.94204877",
		"male":"50.53",
		"female":"49.47"
	},
	{
		"name":"阿尔及利亚",
		"lon":"1.48671928",
		"lat":"27.13458553",
		"male":"50.52",
		"female":"49.48"
	},
	{
		"name":"埃及",
		"lon":"28.99005842",
		"lat":"26.0675505",
		"male":"50.52",
		"female":"49.48"
	},
	{
		"name":"伊朗",
		"lon":"53.75786776",
		"lat":"32.59018877",
		"male":"50.47",
		"female":"49.53"
	},
	{
		"name":"利比亚",
		"lon":"17.78013202",
		"lat":"26.30723218",
		"male":"50.46",
		"female":"49.54"
	},
	{
		"name":"科摩罗",
		"lon":"43.33357493",
		"lat":"-11.58405071",
		"male":"50.44",
		"female":"49.56"
	},
	{
		"name":"关岛",
		"lon":"144.77486581",
		"lat":"13.41641583",
		"male":"50.41",
		"female":"49.59"
	},
	{
		"name":"科特迪瓦",
		"lon":"-5.00789407",
		"lat":"7.45466731",
		"male":"50.39",
		"female":"49.61"
	},
	{
		"name":"塔吉克斯坦",
		"lon":"69.28948549",
		"lat":"38.47017514",
		"male":"50.37",
		"female":"49.63"
	},
	{
		"name":"黎巴嫩",
		"lon":"35.82876848",
		"lat":"33.91969029",
		"male":"50.37",
		"female":"49.63"
	},
	{
		"name":"也门",
		"lon":"47.27023551",
		"lat":"15.42055542",
		"male":"50.37",
		"female":"49.63"
	},
	{
		"name":"格林纳达",
		"lon":"-61.74224211",
		"lat":"12.06975785",
		"male":"50.35",
		"female":"49.65"
	},
	{
		"name":"印度尼西亚",
		"lon":"111.54812233",
		"lat":"-1.47677353",
		"male":"50.34",
		"female":"49.66"
	},
	{
		"name":"圭亚那",
		"lon":"-59.49030665",
		"lat":"5.45406964",
		"male":"50.33",
		"female":"49.67"
	},
	{
		"name":"尼日尔",
		"lon":"9.42562448",
		"lat":"16.72242564",
		"male":"50.3",
		"female":"49.7"
	},
	{
		"name":"利比里亚",
		"lon":"-9.69430769",
		"lat":"6.2323296",
		"male":"50.29",
		"female":"49.71"
	},
	{
		"name":"苏里南",
		"lon":"-56.26515476",
		"lat":"3.81235762",
		"male":"50.24",
		"female":"49.76"
	},
	{
		"name":"冰岛",
		"lon":"-18.42421048",
		"lat":"64.21350805",
		"male":"50.24",
		"female":"49.76"
	},
	{
		"name":"毛里塔尼亚",
		"lon":"-11.88083864",
		"lat":"18.9917918",
		"male":"50.24",
		"female":"49.76"
	},
	{
		"name":"新喀里多尼亚",
		"lon":"165.17469275",
		"lat":"-21.24223679",
		"male":"50.23",
		"female":"49.77"
	},
	{
		"name":"佛得角",
		"lon":"-23.41623376",
		"lat":"15.00567385",
		"male":"50.2",
		"female":"49.8"
	},
	{
		"name":"菲律宾",
		"lon":"120.54766594",
		"lat":"15.39894543",
		"male":"50.2",
		"female":"49.8"
	},
	{
		"name":"老挝",
		"lon":"102.59955648",
		"lat":"19.8256855",
		"male":"50.19",
		"female":"49.81"
	},
	{
		"name":"玻利维亚",
		"lon":"-63.95080766",
		"lat":"-16.72390452",
		"male":"50.17",
		"female":"49.83"
	},
	{
		"name":"马耳他",
		"lon":"14.45343971",
		"lat":"35.89645385",
		"male":"50.16",
		"female":"49.84"
	},
	{
		"name":"马里",
		"lon":"-2.28163293",
		"lat":"16.94752632",
		"male":"50.11",
		"female":"49.89"
	},
	{
		"name":"瑞典",
		"lon":"15.0611252",
		"lat":"63.51230906",
		"male":"50.11",
		"female":"49.89"
	},
	{
		"name":"汤加",
		"lon":"-175.18351252",
		"lat":"-21.34379429",
		"male":"50.06",
		"female":"49.94"
	},
	{
		"name":"韩国",
		"lon":"127.76100021",
		"lat":"36.50155071",
		"male":"50.05",
		"female":"49.95"
	},
	{
		"name":"圣多美和普林西比",
		"lon":"6.71068786",
		"lat":"0.23639989",
		"male":"50.04",
		"female":"49.96"
	},
	{
		"name":"巴拿马",
		"lon":"-81.34020113",
		"lat":"8.42922864",
		"male":"50.04",
		"female":"49.96"
	},
	{
		"name":"埃塞俄比亚",
		"lon":"38.32176665",
		"lat":"7.0858905",
		"male":"50.03",
		"female":"49.97"
	},
	{
		"name":"喀麦隆",
		"lon":"11.19684674",
		"lat":"4.43215052",
		"male":"50.02",
		"female":"49.98"
	},
	{
		"name":"北马其顿",
		"lon":"21.55103335",
		"lat":"41.36925121",
		"male":"50.01",
		"female":"49.99"
	},
	{
		"name":"叙利亚",
		"lon":"38.79947399",
		"lat":"34.77912299",
		"male":"50.01",
		"female":"49.99"
	},
	{
		"name":"厄瓜多尔",
		"lon":"-78.52311988",
		"lat":"-2.09269296",
		"male":"50.01",
		"female":"49.99"
	},
	{
		"name":"布基纳法索",
		"lon":"-2.84206605",
		"lat":"11.64681756",
		"male":"50",
		"female":"50"
	},
	{
		"name":"塞浦路斯",
		"lon":"33.34094086",
		"lat":"35.04803467",
		"male":"49.99",
		"female":"50.01"
	},
	{
		"name":"坦桑尼亚",
		"lon":"34.31739725",
		"lat":"-6.05872722",
		"male":"49.98",
		"female":"50.02"
	},
	{
		"name":"阿塞拜疆",
		"lon":"47.41567268",
		"lat":"39.88384926",
		"male":"49.98",
		"female":"50.02"
	},
	{
		"name":"洪都拉斯",
		"lon":"-86.98711767",
		"lat":"14.388458",
		"male":"49.97",
		"female":"50.03"
	},
	{
		"name":"刚果布",
		"lon":"15.31453531",
		"lat":"-1.0656464",
		"male":"49.97",
		"female":"50.03"
	},
	{
		"name":"苏丹",
		"lon":"28.38610511",
		"lat":"13.57726927",
		"male":"49.96",
		"female":"50.04"
	},
	{
		"name":"贝宁",
		"lon":"2.05830614",
		"lat":"9.69618177",
		"male":"49.96",
		"female":"50.04"
	},
	{
		"name":"哥斯达黎加",
		"lon":"-84.07250158",
		"lat":"9.81520921",
		"male":"49.95",
		"female":"50.05"
	},
	{
		"name":"越南",
		"lon":"108.29272904",
		"lat":"14.31958289",
		"male":"49.93",
		"female":"50.07"
	},
	{
		"name":"刚果金",
		"lon":"21.5396808",
		"lat":"-4.329722",
		"male":"49.93",
		"female":"50.07"
	},
	{
		"name":"乍得",
		"lon":"18.25138862",
		"lat":"14.65617751",
		"male":"49.93",
		"female":"50.07"
	},
	{
		"name":"多米尼加",
		"lon":"-61.39754944",
		"lat":"15.28360931",
		"male":"49.93",
		"female":"50.07"
	},
	{
		"name":"塞拉利昂",
		"lon":"-12.34857774",
		"lat":"8.33813845",
		"male":"49.92",
		"female":"50.08"
	},
	{
		"name":"乌兹别克斯坦",
		"lon":"64.25771494",
		"lat":"40.48475585",
		"male":"49.9",
		"female":"50.1"
	},
	{
		"name":"马达加斯加",
		"lon":"45.71565469",
		"lat":"-20.93866818",
		"male":"49.89",
		"female":"50.11"
	},
	{
		"name":"索马里",
		"lon":"45.6153966",
		"lat":"3.94086364",
		"male":"49.85",
		"female":"50.15"
	},
	{
		"name":"荷兰",
		"lon":"5.2106252",
		"lat":"51.72596563",
		"male":"49.84",
		"female":"50.16"
	},
	{
		"name":"斯洛文尼亚",
		"lon":"14.61136817",
		"lat":"45.81105744",
		"male":"49.81",
		"female":"50.19"
	},
	{
		"name":"以色列",
		"lon":"34.89448896",
		"lat":"30.51714131",
		"male":"49.81",
		"female":"50.19"
	},
	{
		"name":"澳大利亚",
		"lon":"132.69299088",
		"lat":"-25.96175017",
		"male":"49.79",
		"female":"50.21"
	},
	{
		"name":"多哥",
		"lon":"1.08538976",
		"lat":"8.1447516",
		"male":"49.77",
		"female":"50.23"
	},
	{
		"name":"丹麦",
		"lon":"9.43535126",
		"lat":"56.13305006",
		"male":"49.7",
		"female":"50.3"
	},
	{
		"name":"伯利兹",
		"lon":"-88.73844525",
		"lat":"17.1153735",
		"male":"49.7",
		"female":"50.3"
	},
	{
		"name":"肯尼亚",
		"lon":"37.7503446",
		"lat":"-0.44019966",
		"male":"49.69",
		"female":"50.31"
	},
	{
		"name":"秘鲁",
		"lon":"-75.29356745",
		"lat":"-9.46865571",
		"male":"49.67",
		"female":"50.33"
	},
	{
		"name":"爱尔兰",
		"lon":"-7.48763933",
		"lat":"53.07398729",
		"male":"49.66",
		"female":"50.34"
	},
	{
		"name":"摩洛哥",
		"lon":"-8.31324989",
		"lat":"31.03012905",
		"male":"49.65",
		"female":"50.35"
	},
	{
		"name":"加拿大",
		"lon":"-106.67801516",
		"lat":"55.94940205",
		"male":"49.64",
		"female":"50.36"
	},
	{
		"name":"古巴",
		"lon":"-78.25021347",
		"lat":"21.18103773",
		"male":"49.64",
		"female":"50.36"
	},
	{
		"name":"布隆迪",
		"lon":"29.8183549",
		"lat":"-3.831818",
		"male":"49.63",
		"female":"50.37"
	},
	{
		"name":"瑞士",
		"lon":"8.02275958",
		"lat":"46.54678264",
		"male":"49.63",
		"female":"50.37"
	},
	{
		"name":"牙买加",
		"lon":"-76.79045827",
		"lat":"17.92655169",
		"male":"49.61",
		"female":"50.39"
	},
	{
		"name":"比利时",
		"lon":"4.77845066",
		"lat":"50.48378775",
		"male":"49.61",
		"female":"50.39"
	},
	{
		"name":"突尼斯",
		"lon":"9.64363758",
		"lat":"33.24177826",
		"male":"49.6",
		"female":"50.4"
	},
	{
		"name":"冈比亚",
		"lon":"-16.06351237",
		"lat":"13.29230945",
		"male":"49.59",
		"female":"50.41"
	},
	{
		"name":"中非",
		"lon":"19.29525652",
		"lat":"5.9536555",
		"male":"49.57",
		"female":"50.43"
	},
	{
		"name":"赞比亚",
		"lon":"25.58219397",
		"lat":"-15.12103702",
		"male":"49.52",
		"female":"50.48"
	},
	{
		"name":"美国",
		"lon":"-100.10119473",
		"lat":"38.45818355",
		"male":"49.48",
		"female":"50.52"
	},
	{
		"name":"安哥拉",
		"lon":"17.30370638",
		"lat":"-12.31199614",
		"male":"49.48",
		"female":"50.52"
	},
	{
		"name":"吉尔吉斯斯坦",
		"lon":"73.96187052",
		"lat":"41.47963688",
		"male":"49.46",
		"female":"50.54"
	},
	{
		"name":"德国",
		"lon":"10.1256053",
		"lat":"50.71414736",
		"male":"49.46",
		"female":"50.54"
	},
	{
		"name":"黑山",
		"lon":"20.7302761",
		"lat":"44.01088714",
		"male":"49.45",
		"female":"50.55"
	},
	{
		"name":"英国",
		"lon":"-0.9479561",
		"lat":"52.13547854",
		"male":"49.43",
		"female":"50.57"
	},
	{
		"name":"莱索托",
		"lon":"28.14221684",
		"lat":"-29.57521081",
		"male":"49.37",
		"female":"50.63"
	},
	{
		"name":"土耳其",
		"lon":"35.66273783",
		"lat":"38.23662833",
		"male":"49.37",
		"female":"50.63"
	},
	{
		"name":"特立尼达和多巴哥",
		"lon":"-61",
		"lat":"10.99999999",
		"male":"49.35",
		"female":"50.65"
	},
	{
		"name":"海地",
		"lon":"-72.62790025",
		"lat":"18.86794444",
		"male":"49.35",
		"female":"50.65"
	},
	{
		"name":"奥地利",
		"lon":"14.62428674",
		"lat":"47.31605079",
		"male":"49.34",
		"female":"50.66"
	},
	{
		"name":"芬兰",
		"lon":"26.11795779",
		"lat":"61.13869449",
		"male":"49.33",
		"female":"50.67"
	},
	{
		"name":"马拉维",
		"lon":"33.57706921",
		"lat":"-13.11697035",
		"male":"49.32",
		"female":"50.68"
	},
	{
		"name":"乌干达",
		"lon":"32.10842989",
		"lat":"1.07631387",
		"male":"49.32",
		"female":"50.68"
	},
	{
		"name":"智利",
		"lon":"-71.2018394",
		"lat":"-30.80880799",
		"male":"49.32",
		"female":"50.68"
	},
	{
		"name":"毛里求斯",
		"lon":"57.59860021",
		"lat":"-20.19194894",
		"male":"49.3",
		"female":"50.7"
	},
	{
		"name":"危地马拉",
		"lon":"-90.54972818",
		"lat":"14.44556199",
		"male":"49.28",
		"female":"50.72"
	},
	{
		"name":"尼加拉瓜",
		"lon":"-86.19003482",
		"lat":"11.92951381",
		"male":"49.28",
		"female":"50.72"
	},
	{
		"name":"捷克",
		"lon":"14.57834876",
		"lat":"49.22826239",
		"male":"49.25",
		"female":"50.75"
	},
	{
		"name":"斯威士兰",
		"lon":"31.30212271",
		"lat":"-26.72849614",
		"male":"49.25",
		"female":"50.75"
	},
	{
		"name":"南非",
		"lon":"22.79216654",
		"lat":"-30.89872482",
		"male":"49.24",
		"female":"50.76"
	},
	{
		"name":"圣卢西亚",
		"lon":"-60.98288992",
		"lat":"13.98739787",
		"male":"49.24",
		"female":"50.76"
	},
	{
		"name":"蒙古",
		"lon":"103.56288193",
		"lat":"46.42116146",
		"male":"49.23",
		"female":"50.77"
	},
	{
		"name":"土库曼斯坦",
		"lon":"57.4149928",
		"lat":"39.26232713",
		"male":"49.23",
		"female":"50.77"
	},
	{
		"name":"基里巴斯",
		"lon":"-157.40925913",
		"lat":"1.94968591",
		"male":"49.19",
		"female":"50.81"
	},
	{
		"name":"卢旺达",
		"lon":"29.72935267",
		"lat":"-2.09852701",
		"male":"49.17",
		"female":"50.83"
	},
	{
		"name":"西班牙",
		"lon":"-3.62452394",
		"lat":"40.23695453",
		"male":"49.16",
		"female":"50.84"
	},
	{
		"name":"委内瑞拉",
		"lon":"-66.35528433",
		"lat":"8.0390319",
		"male":"49.16",
		"female":"50.84"
	},
	{
		"name":"新西兰",
		"lon":"169.84482595",
		"lat":"-44.08688445",
		"male":"49.15",
		"female":"50.85"
	},
	{
		"name":"巴西",
		"lon":"-53.14408556",
		"lat":"-8.3924145",
		"male":"49.11",
		"female":"50.89"
	},
	{
		"name":"哥伦比亚",
		"lon":"-73.41310562",
		"lat":"3.43280604",
		"male":"49.1",
		"female":"50.9"
	},
	{
		"name":"希腊",
		"lon":"21.53646739",
		"lat":"38.7132052",
		"male":"49.08",
		"female":"50.92"
	},
	{
		"name":"墨西哥",
		"lon":"-102.27387067",
		"lat":"20.60560488",
		"male":"48.92",
		"female":"51.08"
	},
	{
		"name":"朝鲜",
		"lon":"126.44121895",
		"lat":"39.019444",
		"male":"48.91",
		"female":"51.09"
	},
	{
		"name":"塞内加尔",
		"lon":"-15.21512988",
		"lat":"13.97187152",
		"male":"48.83",
		"female":"51.17"
	},
	{
		"name":"柬埔寨",
		"lon":"104.8098583",
		"lat":"12.30072309",
		"male":"48.83",
		"female":"51.17"
	},
	{
		"name":"日本",
		"lon":"138.24499996",
		"lat":"35.97124741",
		"male":"48.82",
		"female":"51.18"
	},
	{
		"name":"阿根廷",
		"lon":"-65.8845141",
		"lat":"-35.85531473",
		"male":"48.8",
		"female":"51.2"
	},
	{
		"name":"意大利",
		"lon":"12.4433416",
		"lat":"42.75190974",
		"male":"48.72",
		"female":"51.28"
	},
	{
		"name":"斯洛伐克",
		"lon":"18.83925792",
		"lat":"48.21960344",
		"male":"48.7",
		"female":"51.3"
	},
	{
		"name":"泰国",
		"lon":"100.92023533",
		"lat":"15.90439918",
		"male":"48.63",
		"female":"51.37"
	},
	{
		"name":"莫桑比克",
		"lon":"33.52501162",
		"lat":"-18.59622667",
		"male":"48.63",
		"female":"51.37"
	},
	{
		"name":"罗马尼亚",
		"lon":"25.65502323",
		"lat":"45.59254493",
		"male":"48.62",
		"female":"51.38"
	},
	{
		"name":"巴哈马",
		"lon":"-77.39370183",
		"lat":"24.84050539",
		"male":"48.6",
		"female":"51.4"
	},
	{
		"name":"保加利亚",
		"lon":"24.31640786",
		"lat":"42.28489491",
		"male":"48.55",
		"female":"51.45"
	},
	{
		"name":"哈萨克斯坦",
		"lon":"65.26881541",
		"lat":"47.43444108",
		"male":"48.55",
		"female":"51.45"
	},
	{
		"name":"纳米比亚",
		"lon":"16.11162808",
		"lat":"-21.56944086",
		"male":"48.49",
		"female":"51.51"
	},
	{
		"name":"几内亚",
		"lon":"-10.10338799",
		"lat":"9.53264297",
		"male":"48.47",
		"female":"51.53"
	},
	{
		"name":"波兰",
		"lon":"18.53020214",
		"lat":"51.38234171",
		"male":"48.45",
		"female":"51.55"
	},
	{
		"name":"巴巴多斯",
		"lon":"-59.61175547",
		"lat":"13.07452302",
		"male":"48.43",
		"female":"51.57"
	},
	{
		"name":"法国",
		"lon":"2.70834464",
		"lat":"45.47341041",
		"male":"48.39",
		"female":"51.61"
	},
	{
		"name":"乌拉圭",
		"lon":"-56.21993947",
		"lat":"-33.01528564",
		"male":"48.33",
		"female":"51.67"
	},
	{
		"name":"安提瓜和巴布达",
		"lon":"-61.85042714",
		"lat":"17.10970069",
		"male":"48.29",
		"female":"51.71"
	},
	{
		"name":"克罗地亚",
		"lon":"16.01938395",
		"lat":"45.44233968",
		"male":"48.24",
		"female":"51.76"
	},
	{
		"name":"缅甸",
		"lon":"94.45287406",
		"lat":"21.81516398",
		"male":"48.19",
		"female":"51.81"
	},
	{
		"name":"斯里兰卡",
		"lon":"80.63936994",
		"lat":"7.47872988",
		"male":"47.91",
		"female":"52.09"
	},
	{
		"name":"摩尔多瓦",
		"lon":"28.73710704",
		"lat":"47.20271846",
		"male":"47.86",
		"female":"52.14"
	},
	{
		"name":"格鲁吉亚",
		"lon":"43.69116855",
		"lat":"41.95969849",
		"male":"47.64",
		"female":"52.36"
	},
	{
		"name":"匈牙利",
		"lon":"19.20951973",
		"lat":"46.69179692",
		"male":"47.62",
		"female":"52.38"
	},
	{
		"name":"美属维尔京群岛",
		"lon":"-64.93290519",
		"lat":"18.35257202",
		"male":"47.47",
		"female":"52.53"
	},
	{
		"name":"爱沙尼亚",
		"lon":"26.17842306",
		"lat":"58.22776617",
		"male":"47.46",
		"female":"52.54"
	},
	{
		"name":"波多黎各",
		"lon":"-66.8163927",
		"lat":"18.0649926",
		"male":"47.35",
		"female":"52.65"
	},
	{
		"name":"葡萄牙",
		"lon":"-7.93851412",
		"lat":"39.19528293",
		"male":"47.32",
		"female":"52.68"
	},
	{
		"name":"亚美尼亚",
		"lon":"44.36478516",
		"lat":"40.15531008",
		"male":"47.03",
		"female":"52.97"
	},
	{
		"name":"萨尔瓦多",
		"lon":"-89.19454694",
		"lat":"13.68324921",
		"male":"46.78",
		"female":"53.22"
	},
	{
		"name":"白俄罗斯",
		"lon":"28.55129608",
		"lat":"53.21771835",
		"male":"46.57",
		"female":"53.43"
	},
	{
		"name":"俄罗斯",
		"lon":"87.88294808",
		"lat":"61.1918584",
		"male":"46.36",
		"female":"53.64"
	},
	{
		"name":"乌克兰",
		"lon":"30.70962064",
		"lat":"48.28195239",
		"male":"46.34",
		"female":"53.66"
	},
	{
		"name":"立陶宛",
		"lon":"24.54274685",
		"lat":"54.70785657",
		"male":"46.29",
		"female":"53.71"
	},
	{
		"name":"拉脱维亚",
		"lon":"26.40378802",
		"lat":"56.68505201",
		"male":"46.12",
		"female":"53.88"
	},
	{
		"name":"尼泊尔",
		"lon":"84.01132543",
		"lat":"28.19355543",
		"male":"46.09",
		"female":"53.91"
	}
]
