[
	{
		"name": "卡塔尔",
		"lon": "51.15016769",
		"lat": "25.19097583",
		"male": "2196661",
		"female": "1941746"
	},
	{
		"name": "阿联酋",
		"lon": "53.97209441",
		"lat": "23.36702071",
		"male": "6888345",
		"female": "6955707"
	},
	{
		"name": "阿曼",
		"lon": "56.54430442",
		"lat": "20.21062776",
		"male": "3443477",
		"female": "3492309"
	},
	{
		"name": "巴林",
		"lon": "50.53193091",
		"lat": "26.11976944",
		"male": "1133875",
		"female": "1057429"
	},
	{
		"name": "马尔代夫",
		"lon": "73.4629725",
		"lat": "-0.24154223",
		"male": "343251",
		"female": "341863"
	},
	{
		"name": "科威特",
		"lon": "48.02932856",
		"lat": "29.28269042",
		"male": "2654306",
		"female": "2599127"
	},
	{
		"name": "沙特阿拉伯",
		"lon": "43.21644807",
		"lat": "22.77276211",
		"male": "20437084",
		"female": "20333646"
	},
	{
		"name": "赤道几内亚",
		"lon": "10.2272019",
		"lat": "1.25572734",
		"male": "806649",
		"female": "698439"
	},
	{
		"name": "不丹",
		"lon": "90.57602868",
		"lat": "27.4963017",
		"male": "414951",
		"female": "392526"
	},
	{
		"name": "吉布提",
		"lon": "42.64426149",
		"lat": "11.68274719",
		"male": "525837",
		"female": "476360"
	},
	{
		"name": "新加坡",
		"lon": "103.81540679",
		"lat": "1.3477903",
		"male": "2854439",
		"female": "2807849"
	},
	{
		"name": "印度",
		"lon": "78.84235355",
		"lat": "20.53923029",
		"male": "723973437",
		"female": "669435596"
	},
	{
		"name": "文莱",
		"lon": "114.5676666",
		"lat": "4.50611111",
		"male": "228948",
		"female": "203997"
	},
	{
		"name": "萨摩亚",
		"lon": "-171.73148493",
		"lat": "-13.83931861",
		"male": "103615",
		"female": "96529"
	},
	{
		"name": "巴基斯坦",
		"lon": "69.46850168",
		"lat": "29.33984575",
		"male": "115884798",
		"female": "109315131"
	},
	{
		"name": "马来西亚",
		"lon": "102.1632695",
		"lat": "3.4543702",
		"male": "16834984",
		"female": "16789111"
	},
	{
		"name": "阿富汗",
		"lon": "65.79911083",
		"lat": "33.8923245",
		"male": "20434981",
		"female": "19476653"
	},
	{
		"name": "中国",
		"lon": "115.388333",
		"lat": "39.928889",
		"male": "724187545",
		"female": "688172455"
	},
	{
		"name": "塞舌尔",
		"lon": "55.45171756",
		"lat": "-4.68445364",
		"male": "50844",
		"female": "53313"
	},
	{
		"name": "巴布亚新几内亚",
		"lon": "141.93246642",
		"lat": "-6.74711949",
		"male": "4656594",
		"female": "4699984"
	},
	{
		"name": "阿尔巴尼亚",
		"lon": "20.07914673",
		"lat": "40.82970135",
		"male": "1430832",
		"female": "1498273"
	},
	{
		"name": "加蓬",
		"lon": "11.01644662",
		"lat": "-1.78264571",
		"male": "1159442",
		"female": "1093046"
	},
	{
		"name": "所罗门群岛",
		"lon": "159.99245377",
		"lat": "-9.64815255",
		"male": "357972",
		"female": "346023"
	},
	{
		"name": "密克罗尼西亚联邦",
		"lon": "158.258329",
		"lat": "6.78638109",
		"male": "59095",
		"female": "57160"
	},
	{
		"name": "巴拉圭",
		"lon": "-58.9265692",
		"lat": "-23.95325217",
		"male": "3667464",
		"female": "3552177"
	},
	{
		"name": "加纳",
		"lon": "-1.57841477",
		"lat": "6.67032426",
		"male": "16085850",
		"female": "15941211"
	},
	{
		"name": "尼日利亚",
		"lon": "7.96389206",
		"lat": "8.74325859",
		"male": "107149995",
		"female": "108891925"
	},
	{
		"name": "瓦努阿图",
		"lon": "167.60484059",
		"lat": "-16.48991016",
		"male": "159357",
		"female": "155107"
	},
	{
		"name": "约旦",
		"lon": "36.12733001",
		"lat": "30.48298732",
		"male": "5201385",
		"female": "5086263"
	},
	{
		"name": "斐济",
		"lon": "177.74917257",
		"lat": "-17.9773054",
		"male": "",
		"female": ""
	},
	{
		"name": "伊拉克",
		"lon": "43.86088768",
		"lat": "32.42379955",
		"male": "20845705",
		"female": "22075165"
	},
	{
		"name": "法属玻利尼西亚",
		"lon": "-149.53951134",
		"lat": "-17.70571749",
		"male": "",
		"female": ""
	},
	{
		"name": "圣文森特和格纳丁斯",
		"lon": "-61.26103589",
		"lat": "13.18576217",
		"male": "",
		"female": ""
	},
	{
		"name": "卢森堡",
		"lon": "6.19753484",
		"lat": "49.75883023",
		"male": "323385",
		"female": "315685"
	},
	{
		"name": "挪威",
		"lon": "8.40799822",
		"lat": "60.12367222",
		"male": "2735177",
		"female": "2673143"
	},
	{
		"name": "孟加拉国",
		"lon": "89.55503544",
		"lat": "24.28464895",
		"male": "",
		"female": ""
	},
	{
		"name": "东帝汶",
		"lon": "125.69811778",
		"lat": "-8.94204877",
		"male": "679032",
		"female": "643242"
	},
	{
		"name": "阿尔及利亚",
		"lon": "1.48671928",
		"lat": "27.13458553",
		"male": "22541461",
		"female": "23509595"
	},
	{
		"name": "埃及",
		"lon": "28.99005842",
		"lat": "26.0675505",
		"male": "52672373",
		"female": "51585954"
	},
	{
		"name": "伊朗",
		"lon": "53.75786776",
		"lat": "32.59018877",
		"male": "42911442",
		"female": "43058238"
	},
	{
		"name": "利比亚",
		"lon": "17.78013202",
		"lat": "26.30723218",
		"male": "3511227",
		"female": "3549562"
	},
	{
		"name": "科摩罗",
		"lon": "43.33357493",
		"lat": "-11.58405071",
		"male": "448164",
		"female": "440292"
	},
	{
		"name": "关岛",
		"lon": "144.77486581",
		"lat": "13.41641583",
		"male": "85795",
		"female": "84389"
	},
	{
		"name": "科特迪瓦",
		"lon": "-5.00789407",
		"lat": "7.45466731",
		"male": "13633247",
		"female": "13605827"
	},
	{
		"name": "塔吉克斯坦",
		"lon": "69.28948549",
		"lat": "38.47017514",
		"male": "4911140",
		"female": "5034311"
	},
	{
		"name": "黎巴嫩",
		"lon": "35.82876848",
		"lat": "33.91969029",
		"male": "3409650",
		"female": "3468951"
	},
	{
		"name": "也门",
		"lon": "47.27023551",
		"lat": "15.42055542",
		"male": "15358046",
		"female": "15132593"
	},
	{
		"name": "格林纳达",
		"lon": "-61.74224211",
		"lat": "12.06975785",
		"male": "56902",
		"female": "56367"
	},
	{
		"name": "印度尼西亚",
		"lon": "111.54812233",
		"lat": "-1.47677353",
		"male": "",
		"female": ""
	},
	{
		"name": "圭亚那",
		"lon": "-59.49030665",
		"lat": "5.45406964",
		"male": "397803",
		"female": "364949"
	},
	{
		"name": "尼日尔",
		"lon": "9.42562448",
		"lat": "16.72242564",
		"male": "12640015",
		"female": "12490795"
	},
	{
		"name": "利比里亚",
		"lon": "-9.69430769",
		"lat": "6.2323296",
		"male": "2605064",
		"female": "2572219"
	},
	{
		"name": "苏里南",
		"lon": "-56.26515476",
		"lat": "3.81235762",
		"male": "297324",
		"female": "279806"
	},
	{
		"name": "冰岛",
		"lon": "-18.42421048",
		"lat": "64.21350805",
		"male": "187041",
		"female": "185254"
	},
	{
		"name": "毛里塔尼亚",
		"lon": "-11.88083864",
		"lat": "18.9917918",
		"male": "2398833",
		"female": "2017978"
	},
	{
		"name": "新喀里多尼亚",
		"lon": "165.17469275",
		"lat": "-21.24223679",
		"male": "136944",
		"female": "135676"
	},
	{
		"name": "佛得角",
		"lon": "-23.41623376",
		"lat": "15.00567385",
		"male": "282095",
		"female": "257585"
	},
	{
		"name": "菲律宾",
		"lon": "120.54766594",
		"lat": "15.39894543",
		"male": "55740661",
		"female": "55306249"
	},
	{
		"name": "老挝",
		"lon": "102.59955648",
		"lat": "19.8256855",
		"male": "3703857",
		"female": "3675501"
	},
	{
		"name": "玻利维亚",
		"lon": "-63.95080766",
		"lat": "-16.72390452",
		"male": "5936423",
		"female": "5896513"
	},
	{
		"name": "马耳他",
		"lon": "14.45343971",
		"lat": "35.89645385",
		"male": "259284",
		"female": "212584"
	},
	{
		"name": "马里",
		"lon": "-2.28163293",
		"lat": "16.94752632",
		"male": "10451763",
		"female": "10403961"
	},
	{
		"name": "瑞典",
		"lon": "15.0611252",
		"lat": "63.51230906",
		"male": "5219355",
		"female": "5196456"
	},
	{
		"name": "汤加",
		"lon": "-175.18351252",
		"lat": "-21.34379429",
		"male": "53446",
		"female": "54949"
	},
	{
		"name": "韩国",
		"lon": "127.76100021",
		"lat": "36.50155071",
		"male": "25898697",
		"female": "26094433"
	},
	{
		"name": "圣多美和普林西比",
		"lon": "6.71068786",
		"lat": "0.23639989",
		"male": "111779",
		"female": "111585"
	},
	{
		"name": "巴拿马",
		"lon": "-81.34020113",
		"lat": "8.42922864",
		"male": "2192584",
		"female": "1800620"
	},
	{
		"name": "埃塞俄比亚",
		"lon": "38.32176665",
		"lat": "7.0858905",
		"male": "58977276",
		"female": "58898950"
	},
	{
		"name": "喀麦隆",
		"lon": "11.19684674",
		"lat": "4.43215052",
		"male": "13618435",
		"female": "13420382"
	},
	{
		"name": "北马其顿",
		"lon": "21.55103335",
		"lat": "41.36925121",
		"male": "",
		"female": ""
	},
	{
		"name": "叙利亚",
		"lon": "38.79947399",
		"lat": "34.77912299",
		"male": "9140412",
		"female": "9135292"
	},
	{
		"name": "厄瓜多尔",
		"lon": "-78.52311988",
		"lat": "-2.09269296",
		"male": "8945176",
		"female": "8943298"
	},
	{
		"name": "布基纳法索",
		"lon": "-2.84206605",
		"lat": "11.64681756",
		"male": "10747651",
		"female": "11542022"
	},
	{
		"name": "塞浦路斯",
		"lon": "33.34094086",
		"lat": "35.04803467",
		"male": "607630",
		"female": "607958"
	},
	{
		"name": "坦桑尼亚",
		"lon": "34.31739725",
		"lat": "-6.05872722",
		"male": "30738690",
		"female": "30759748"
	},
	{
		"name": "阿塞拜疆",
		"lon": "47.41567268",
		"lat": "39.88384926",
		"male": "5070380",
		"female": "5074832"
	},
	{
		"name": "洪都拉斯",
		"lon": "-86.98711767",
		"lat": "14.388458",
		"male": "5028683",
		"female": "5067637"
	},
	{
		"name": "刚果布",
		"lon": "15.31453531",
		"lat": "-1.0656464",
		"male": "",
		"female": ""
	},
	{
		"name": "苏丹",
		"lon": "28.38610511",
		"lat": "13.57726927",
		"male": "22438762",
		"female": "23455139"
	},
	{
		"name": "贝宁",
		"lon": "2.05830614",
		"lat": "9.69618177",
		"male": "6220142",
		"female": "6172572"
	},
	{
		"name": "哥斯达黎加",
		"lon": "-84.07250158",
		"lat": "9.81520921",
		"male": "2566834",
		"female": "2531058"
	},
	{
		"name": "越南",
		"lon": "108.29272904",
		"lat": "14.31958289",
		"male": "49017994",
		"female": "49150835"
	},
	{
		"name": "刚果金",
		"lon": "21.5396808",
		"lat": "-4.329722",
		"male": "",
		"female": ""
	},
	{
		"name": "乍得",
		"lon": "18.25138862",
		"lat": "14.65617751",
		"male": "8444820",
		"female": "8794772"
	},
	{
		"name": "多米尼加",
		"lon": "-61.39754944",
		"lat": "15.28360931",
		"male": "5468642",
		"female": "5431804"
	},
	{
		"name": "塞拉利昂",
		"lon": "-12.34857774",
		"lat": "8.33813845",
		"male": "4064380",
		"female": "4018301"
	},
	{
		"name": "乌兹别克斯坦",
		"lon": "64.25771494",
		"lat": "40.48475585",
		"male": "17420993",
		"female": "17143471"
	},
	{
		"name": "马达加斯加",
		"lon": "45.71565469",
		"lat": "-20.93866818",
		"male": "14183601",
		"female": "14903596"
	},
	{
		"name": "索马里",
		"lon": "45.6153966",
		"lat": "3.94086364",
		"male": "8155933",
		"female": "8203567"
	},
	{
		"name": "荷兰",
		"lon": "5.2106252",
		"lat": "51.72596563",
		"male": "8738633",
		"female": "8799129"
	},
	{
		"name": "斯洛文尼亚",
		"lon": "14.61136817",
		"lat": "45.81105744",
		"male": "1049578",
		"female": "1028769"
	},
	{
		"name": "以色列",
		"lon": "34.89448896",
		"lat": "30.51714131",
		"male": "4664016",
		"female": "4838485"
	},
	{
		"name": "澳大利亚",
		"lon": "132.69299088",
		"lat": "-25.96175017",
		"male": "12816822",
		"female": "13225110"
	},
	{
		"name": "多哥",
		"lon": "1.08538976",
		"lat": "8.1447516",
		"male": "4219666",
		"female": "4076963"
	},
	{
		"name": "丹麦",
		"lon": "9.43535126",
		"lat": "56.13305006",
		"male": "2911068",
		"female": "2830380"
	},
	{
		"name": "伯利兹",
		"lon": "-88.73844525",
		"lat": "17.1153735",
		"male": "201255",
		"female": "203660"
	},
	{
		"name": "肯尼亚",
		"lon": "37.7503446",
		"lat": "-0.44019966",
		"male": "27322828",
		"female": "28393990"
	},
	{
		"name": "秘鲁",
		"lon": "-75.29356745",
		"lat": "-9.46865571",
		"male": "16570305",
		"female": "15998314"
	},
	{
		"name": "爱尔兰",
		"lon": "-7.48763933",
		"lat": "53.07398729",
		"male": "2497172",
		"female": "2426475"
	},
	{
		"name": "摩洛哥",
		"lon": "-8.31324989",
		"lat": "31.03012905",
		"male": "18540514",
		"female": "18804273"
	},
	{
		"name": "加拿大",
		"lon": "-106.67801516",
		"lat": "55.94940205",
		"male": "18986363",
		"female": "19259745"
	},
	{
		"name": "古巴",
		"lon": "-78.25021347",
		"lat": "21.18103773",
		"male": "5617919",
		"female": "5485072"
	},
	{
		"name": "布隆迪",
		"lon": "29.8183549",
		"lat": "-3.831818",
		"male": "6082857",
		"female": "6016147"
	},
	{
		"name": "瑞士",
		"lon": "8.02275958",
		"lat": "46.54678264",
		"male": "4316627",
		"female": "4258576"
	},
	{
		"name": "牙买加",
		"lon": "-76.79045827",
		"lat": "17.92655169",
		"male": "1475189",
		"female": "1501403"
	},
	{
		"name": "比利时",
		"lon": "4.77845066",
		"lat": "50.48378775",
		"male": "5748604",
		"female": "5839278"
	},
	{
		"name": "突尼斯",
		"lon": "9.64363758",
		"lat": "33.24177826",
		"male": "5919617",
		"female": "5845940"
	},
	{
		"name": "冈比亚",
		"lon": "-16.06351237",
		"lat": "13.29230945",
		"male": "1233376",
		"female": "1253561"
	},
	{
		"name": "中非",
		"lon": "19.29525652",
		"lat": "5.9536555",
		"male": "2438968",
		"female": "2188999"
	},
	{
		"name": "赞比亚",
		"lon": "25.58219397",
		"lat": "-15.12103702",
		"male": "9369739",
		"female": "9776740"
	},
	{
		"name": "美国",
		"lon": "-100.10119473",
		"lat": "38.45818355",
		"male": "164224068",
		"female": "167669677"
	},
	{
		"name": "安哥拉",
		"lon": "17.30370638",
		"lat": "-12.31199614",
		"male": "16790140",
		"female": "16523661"
	},
	{
		"name": "吉尔吉斯斯坦",
		"lon": "73.96187052",
		"lat": "41.47963688",
		"male": "3311282",
		"female": "3359501"
	},
	{
		"name": "德国",
		"lon": "10.1256053",
		"lat": "50.71414736",
		"male": "41118695",
		"female": "42010590"
	},
	{
		"name": "黑山",
		"lon": "20.7302761",
		"lat": "44.01088714",
		"male": "306695",
		"female": "294474"
	},
	{
		"name": "英国",
		"lon": "-0.9479561",
		"lat": "52.13547854",
		"male": "33281018",
		"female": "34833461"
	},
	{
		"name": "莱索托",
		"lon": "28.14221684",
		"lat": "-29.57521081",
		"male": "1066021",
		"female": "1032248"
	},
	{
		"name": "土耳其",
		"lon": "35.66273783",
		"lat": "38.23662833",
		"male": "41984498",
		"female": "42117318"
	},
	{
		"name": "特立尼达和多巴哥",
		"lon": "-61",
		"lat": "10.99999999",
		"male": "692570",
		"female": "664843"
	},
	{
		"name": "海地",
		"lon": "-72.62790025",
		"lat": "18.86794444",
		"male": "5695743",
		"female": "5683867"
	},
	{
		"name": "奥地利",
		"lon": "14.62428674",
		"lat": "47.31605079",
		"male": "4418785",
		"female": "4462411"
	},
	{
		"name": "芬兰",
		"lon": "26.11795779",
		"lat": "61.13869449",
		"male": "2733847",
		"female": "2604995"
	},
	{
		"name": "马拉维",
		"lon": "33.57706921",
		"lat": "-13.11697035",
		"male": "9691013",
		"female": "9956668"
	},
	{
		"name": "乌干达",
		"lon": "32.10842989",
		"lat": "1.07631387",
		"male": "23240964",
		"female": "23882569"
	},
	{
		"name": "智利",
		"lon": "-71.2018394",
		"lat": "-30.80880799",
		"male": "9475340",
		"female": "9822102"
	},
	{
		"name": "毛里求斯",
		"lon": "57.59860021",
		"lat": "-20.19194894",
		"male": "624167",
		"female": "614420"
	},
	{
		"name": "危地马拉",
		"lon": "-90.54972818",
		"lat": "14.44556199",
		"male": "8432380",
		"female": "8677366"
	},
	{
		"name": "尼加拉瓜",
		"lon": "-86.19003482",
		"lat": "11.92951381",
		"male": "3303145",
		"female": "3106246"
	},
	{
		"name": "捷克",
		"lon": "14.57834876",
		"lat": "49.22826239",
		"male": "5271642",
		"female": "5429867"
	},
	{
		"name": "斯威士兰",
		"lon": "31.30212271",
		"lat": "-26.72849614",
		"male": "577349",
		"female": "595020"
	},
	{
		"name": "南非",
		"lon": "22.79216654",
		"lat": "-30.89872482",
		"male": "29564652",
		"female": "30477344"
	},
	{
		"name": "圣卢西亚",
		"lon": "-60.98288992",
		"lat": "13.98739787",
		"male": "90795",
		"female": "93606"
	},
	{
		"name": "蒙古",
		"lon": "103.56288193",
		"lat": "46.42116146",
		"male": "1639042",
		"female": "1674247"
	},
	{
		"name": "土库曼斯坦",
		"lon": "57.4149928",
		"lat": "39.26232713",
		"male": "3011687",
		"female": "2945665"
	},
	{
		"name": "基里巴斯",
		"lon": "-157.40925913",
		"lat": "1.94968591",
		"male": "59709",
		"female": "61679"
	},
	{
		"name": "卢旺达",
		"lon": "29.72935267",
		"lat": "-2.09852701",
		"male": "6528496",
		"female": "6230889"
	},
	{
		"name": "西班牙",
		"lon": "-3.62452394",
		"lat": "40.23695453",
		"male": "23264944",
		"female": "24061743"
	},
	{
		"name": "委内瑞拉",
		"lon": "-66.35528433",
		"lat": "8.0390319",
		"male": "14110308",
		"female": "14594639"
	},
	{
		"name": "新西兰",
		"lon": "169.84482595",
		"lat": "-44.08688445",
		"male": "2517605",
		"female": "2481019"
	},
	{
		"name": "巴西",
		"lon": "-53.14408556",
		"lat": "-8.3924145",
		"male": "105101516",
		"female": "104250709"
	},
	{
		"name": "哥伦比亚",
		"lon": "-73.41310562",
		"lat": "3.43280604",
		"male": "25171408",
		"female": "25846179"
	},
	{
		"name": "希腊",
		"lon": "21.53646739",
		"lat": "38.7132052",
		"male": "5234701",
		"female": "5425255"
	},
	{
		"name": "墨西哥",
		"lon": "-102.27387067",
		"lat": "20.60560488",
		"male": "63724708",
		"female": "66537512"
	},
	{
		"name": "朝鲜",
		"lon": "126.44121895",
		"lat": "39.019444",
		"male": "12661935",
		"female": "12922434"
	},
	{
		"name": "塞内加尔",
		"lon": "-15.21512988",
		"lat": "13.97187152",
		"male": "8397179",
		"female": "8671310"
	},
	{
		"name": "柬埔寨",
		"lon": "104.8098583",
		"lat": "12.30072309",
		"male": "8275136",
		"female": "8470165"
	},
	{
		"name": "日本",
		"lon": "138.24499996",
		"lat": "35.97124741",
		"male": "61354328",
		"female": "64327265"
	},
	{
		"name": "阿根廷",
		"lon": "-65.8845141",
		"lat": "-35.85531473",
		"male": "22353608",
		"female": "22470589"
	},
	{
		"name": "意大利",
		"lon": "12.4433416",
		"lat": "42.75190974",
		"male": "28777267",
		"female": "30288958"
	},
	{
		"name": "斯洛伐克",
		"lon": "18.83925792",
		"lat": "48.21960344",
		"male": "2652733",
		"female": "2575144"
	},
	{
		"name": "泰国",
		"lon": "100.92023533",
		"lat": "15.90439918",
		"male": "34016802",
		"female": "35934042"
	},
	{
		"name": "莫桑比克",
		"lon": "33.52501162",
		"lat": "-18.59622667",
		"male": "15639384",
		"female": "15646278"
	},
	{
		"name": "罗马尼亚",
		"lon": "25.65502323",
		"lat": "45.59254493",
		"male": "9293044",
		"female": "9737022"
	},
	{
		"name": "巴哈马",
		"lon": "-77.39370183",
		"lat": "24.84050539",
		"male": "192917",
		"female": "200369"
	},
	{
		"name": "保加利亚",
		"lon": "24.31640786",
		"lat": "42.28489491",
		"male": "3349563",
		"female": "3382918"
	},
	{
		"name": "哈萨克斯坦",
		"lon": "65.26881541",
		"lat": "47.43444108",
		"male": "9225846",
		"female": "9550918"
	},
	{
		"name": "纳米比亚",
		"lon": "16.11162808",
		"lat": "-21.56944086",
		"male": "1254501",
		"female": "1332843"
	},
	{
		"name": "几内亚",
		"lon": "-10.10338799",
		"lat": "9.53264297",
		"male": "6541530",
		"female": "6748021"
	},
	{
		"name": "波兰",
		"lon": "18.53020214",
		"lat": "51.38234171",
		"male": "18304371",
		"female": "17494107"
	},
	{
		"name": "巴巴多斯",
		"lon": "-59.61175547",
		"lat": "13.07452302",
		"male": "139349",
		"female": "139512"
	},
	{
		"name": "法国",
		"lon": "2.70834464",
		"lat": "45.47341041",
		"male": "32665882",
		"female": "34045551"
	},
	{
		"name": "乌拉圭",
		"lon": "-56.21993947",
		"lat": "-33.01528564",
		"male": "1684532",
		"female": "1690240"
	},
	{
		"name": "安提瓜和巴布达",
		"lon": "-61.85042714",
		"lat": "17.10970069",
		"male": "47678",
		"female": "48358"
	},
	{
		"name": "克罗地亚",
		"lon": "16.01938395",
		"lat": "45.44233968",
		"male": "1881022",
		"female": "1779899"
	},
	{
		"name": "缅甸",
		"lon": "94.45287406",
		"lat": "21.81516398",
		"male": "26412024",
		"female": "27662874"
	},
	{
		"name": "斯里兰卡",
		"lon": "80.63936994",
		"lat": "7.47872988",
		"male": "10613978",
		"female": "10749446"
	},
	{
		"name": "摩尔多瓦",
		"lon": "28.73710704",
		"lat": "47.20271846",
		"male": "1231845",
		"female": "1234670"
	},
	{
		"name": "格鲁吉亚",
		"lon": "43.69116855",
		"lat": "41.95969849",
		"male": "1766864",
		"female": "1718294"
	},
	{
		"name": "匈牙利",
		"lon": "19.20951973",
		"lat": "46.69179692",
		"male": "4623623",
		"female": "4537494"
	},
	{
		"name": "美属维尔京群岛",
		"lon": "-64.93290519",
		"lat": "18.35257202",
		"male": "",
		"female": ""
	},
	{
		"name": "爱沙尼亚",
		"lon": "26.17842306",
		"lat": "58.22776617",
		"male": "630815",
		"female": "641893"
	},
	{
		"name": "波多黎各",
		"lon": "-66.8163927",
		"lat": "18.0649926",
		"male": "1545290",
		"female": "1572135"
	},
	{
		"name": "葡萄牙",
		"lon": "-7.93851412",
		"lat": "39.19528293",
		"male": "4874168",
		"female": "4990262"
	},
	{
		"name": "亚美尼亚",
		"lon": "44.36478516",
		"lat": "40.15531008",
		"male": "1395993",
		"female": "1380834"
	},
	{
		"name": "萨尔瓦多",
		"lon": "-89.19454694",
		"lat": "13.68324921",
		"male": "3049549",
		"female": "3102738"
	},
	{
		"name": "白俄罗斯",
		"lon": "28.55129608",
		"lat": "53.21771835",
		"male": "4350052",
		"female": "4381096"
	},
	{
		"name": "俄罗斯",
		"lon": "87.88294808",
		"lat": "61.1918584",
		"male": "66495134",
		"female": "76950926"
	},
	{
		"name": "乌克兰",
		"lon": "30.70962064",
		"lat": "48.28195239",
		"male": "20304986",
		"female": "19400447"
	},
	{
		"name": "立陶宛",
		"lon": "24.54274685",
		"lat": "54.70785657",
		"male": "1293918",
		"female": "1342083"
	},
	{
		"name": "拉脱维亚",
		"lon": "26.40378802",
		"lat": "56.68505201",
		"male": "868529",
		"female": "710804"
	},
	{
		"name": "尼泊尔",
		"lon": "84.01132543",
		"lat": "28.19355543",
		"male": "13676606",
		"female": "14243732"
	}
]