{
    "city": [
        {
            "ID": "0",
            "节点编码": "130100",
            "cityName": "石家庄市",
            "lon": "114.502461",
            "lat": "38.045474",
            "中心经度": "114.444982",
            "中心纬度": "38.133034",
            "子节点个数": "22",
            "级别": "city",
            "父节点编码": "130000",
            "acroutes": "100000",
            "name": "区域"
        },
        {
            "ID": "1",
            "节点编码": "659009",
            "cityName": "昆玉市",
            "lon": "79.287372",
            "lat": "37.207994",
            "中心经度": "79.593726",
            "中心纬度": "37.372468",
            "子节点个数": "0",
            "级别": "city",
            "父节点编码": "650000",
            "acroutes": "100000"
        },
        {
            "ID": "2",
            "节点编码": "659010",
            "cityName": "胡杨河市",
            "lon": "84.8275959",
            "lat": "44.69288853",
            "中心经度": "84.786397",
            "中心纬度": "44.84257",
            "子节点个数": "0",
            "级别": "city",
            "父节点编码": "650000",
            "acroutes": "100000"
        },
        {
            "ID": "3",
            "节点编码": "130200",
            "cityName": "唐山市",
            "lon": "118.175393",
            "lat": "39.635113",
            "中心经度": "118.343325",
            "中心纬度": "39.71703",
            "子节点个数": "14",
            "级别": "city",
            "父节点编码": "130000",
            "acroutes": "100000"
        },
        {
            "ID": "4",
            "节点编码": "130300",
            "cityName": "秦皇岛市",
            "lon": "119.586579",
            "lat": "39.942531",
            "中心经度": "119.193332",
            "中心纬度": "40.088346",
            "子节点个数": "7",
            "级别": "city",
            "父节点编码": "130000",
            "acroutes": "100000"
        },
        {
            "ID": "5",
            "节点编码": "130400",
            "cityName": "邯郸市",
            "lon": "114.490686",
            "lat": "36.612273",
            "中心经度": "114.548854",
            "中心纬度": "36.553496",
            "子节点个数": "18",
            "级别": "city",
            "父节点编码": "130000",
            "acroutes": "100000"
        },
        {
            "ID": "6",
            "节点编码": "130500",
            "cityName": "邢台市",
            "lon": "114.508851",
            "lat": "37.0682",
            "中心经度": "114.822676",
            "中心纬度": "37.213788",
            "子节点个数": "18",
            "级别": "city",
            "父节点编码": "130000",
            "acroutes": "100000"
        },
        {
            "ID": "7",
            "节点编码": "130600",
            "cityName": "保定市",
            "lon": "115.482331",
            "lat": "38.867657",
            "中心经度": "115.177642",
            "中心纬度": "39.025137",
            "子节点个数": "24",
            "级别": "city",
            "父节点编码": "130000",
            "acroutes": "100000"
        },
        {
            "ID": "8",
            "节点编码": "130700",
            "cityName": "张家口市",
            "lon": "114.884091",
            "lat": "40.811901",
            "中心经度": "115.038685",
            "中心纬度": "40.874645",
            "子节点个数": "16",
            "级别": "city",
            "父节点编码": "130000",
            "acroutes": "100000"
        },
        {
            "ID": "9",
            "节点编码": "130800",
            "cityName": "承德市",
            "lon": "117.939152",
            "lat": "40.976204",
            "中心经度": "117.551533",
            "中心纬度": "41.356206",
            "子节点个数": "11",
            "级别": "city",
            "父节点编码": "130000",
            "acroutes": "100000"
        },
        {
            "ID": "10",
            "节点编码": "130900",
            "cityName": "沧州市",
            "lon": "116.857461",
            "lat": "38.310582",
            "中心经度": "116.771341",
            "中心纬度": "38.270959",
            "子节点个数": "16",
            "级别": "city",
            "父节点编码": "130000",
            "acroutes": "100000"
        },
        {
            "ID": "11",
            "节点编码": "131000",
            "cityName": "廊坊市",
            "lon": "116.704441",
            "lat": "39.523927",
            "中心经度": "116.540212",
            "中心纬度": "39.111215",
            "子节点个数": "10",
            "级别": "city",
            "父节点编码": "130000",
            "acroutes": "100000"
        },
        {
            "ID": "12",
            "节点编码": "131100",
            "cityName": "衡水市",
            "lon": "115.665993",
            "lat": "37.735097",
            "中心经度": "115.828761",
            "中心纬度": "37.7648",
            "子节点个数": "11",
            "级别": "city",
            "父节点编码": "130000",
            "acroutes": "100000"
        },
        {
            "ID": "13",
            "节点编码": "140100",
            "cityName": "太原市",
            "lon": "112.549248",
            "lat": "37.857014",
            "中心经度": "112.322147",
            "中心纬度": "37.960573",
            "子节点个数": "10",
            "级别": "city",
            "父节点编码": "140000",
            "acroutes": "100000"
        },
        {
            "ID": "14",
            "节点编码": "140200",
            "cityName": "大同市",
            "lon": "113.295259",
            "lat": "40.09031",
            "中心经度": "113.72499",
            "中心纬度": "39.904541",
            "子节点个数": "10",
            "级别": "city",
            "父节点编码": "140000",
            "acroutes": "100000"
        },
        {
            "ID": "15",
            "节点编码": "140300",
            "cityName": "阳泉市",
            "lon": "113.583285",
            "lat": "37.861188",
            "中心经度": "113.505474",
            "中心纬度": "38.064652",
            "子节点个数": "5",
            "级别": "city",
            "父节点编码": "140000",
            "acroutes": "100000"
        },
        {
            "ID": "16",
            "节点编码": "140400",
            "cityName": "长治市",
            "lon": "113.113556",
            "lat": "36.191112",
            "中心经度": "112.921277",
            "中心纬度": "36.478022",
            "子节点个数": "12",
            "级别": "city",
            "父节点编码": "140000",
            "acroutes": "100000"
        },
        {
            "ID": "17",
            "节点编码": "140500",
            "cityName": "晋城市",
            "lon": "112.851274",
            "lat": "35.497553",
            "中心经度": "112.713186",
            "中心纬度": "35.610944",
            "子节点个数": "6",
            "级别": "city",
            "父节点编码": "140000",
            "acroutes": "100000"
        },
        {
            "ID": "18",
            "节点编码": "140600",
            "cityName": "朔州市",
            "lon": "112.433387",
            "lat": "39.331261",
            "中心经度": "112.648197",
            "中心纬度": "39.619375",
            "子节点个数": "6",
            "级别": "city",
            "父节点编码": "140000",
            "acroutes": "100000"
        },
        {
            "ID": "19",
            "节点编码": "140700",
            "cityName": "晋中市",
            "lon": "112.736465",
            "lat": "37.696495",
            "中心经度": "112.969398",
            "中心纬度": "37.329161",
            "子节点个数": "11",
            "级别": "city",
            "父节点编码": "140000",
            "acroutes": "100000"
        },
        {
            "ID": "20",
            "节点编码": "140800",
            "cityName": "运城市",
            "lon": "111.003957",
            "lat": "35.022778",
            "中心经度": "111.070718",
            "中心纬度": "35.188073",
            "子节点个数": "13",
            "级别": "city",
            "父节点编码": "140000",
            "acroutes": "100000"
        },
        {
            "ID": "21",
            "节点编码": "140900",
            "cityName": "忻州市",
            "lon": "112.733538",
            "lat": "38.41769",
            "中心经度": "112.414867",
            "中心纬度": "38.885126",
            "子节点个数": "14",
            "级别": "city",
            "父节点编码": "140000",
            "acroutes": "100000"
        },
        {
            "ID": "22",
            "节点编码": "141000",
            "cityName": "临汾市",
            "lon": "111.517973",
            "lat": "36.08415",
            "中心经度": "111.381988",
            "中心纬度": "36.228828",
            "子节点个数": "17",
            "级别": "city",
            "父节点编码": "140000",
            "acroutes": "100000"
        },
        {
            "ID": "23",
            "节点编码": "141100",
            "cityName": "吕梁市",
            "lon": "111.134335",
            "lat": "37.524366",
            "中心经度": "111.268548",
            "中心纬度": "37.684104",
            "子节点个数": "13",
            "级别": "city",
            "父节点编码": "140000",
            "acroutes": "100000"
        },
        {
            "ID": "24",
            "节点编码": "150100",
            "cityName": "呼和浩特市",
            "lon": "111.670801",
            "lat": "40.818311",
            "中心经度": "111.50328",
            "中心纬度": "40.597159",
            "子节点个数": "9",
            "级别": "city",
            "父节点编码": "150000",
            "acroutes": "100000"
        },
        {
            "ID": "25",
            "节点编码": "150200",
            "cityName": "包头市",
            "lon": "109.840405",
            "lat": "40.658168",
            "中心经度": "110.266038",
            "中心纬度": "41.559669",
            "子节点个数": "9",
            "级别": "city",
            "父节点编码": "150000",
            "acroutes": "100000"
        },
        {
            "ID": "26",
            "节点编码": "150300",
            "cityName": "乌海市",
            "lon": "106.825563",
            "lat": "39.673734",
            "中心经度": "106.874373",
            "中心纬度": "39.426964",
            "子节点个数": "3",
            "级别": "city",
            "父节点编码": "150000",
            "acroutes": "100000"
        },
        {
            "ID": "27",
            "节点编码": "150400",
            "cityName": "赤峰市",
            "lon": "118.956806",
            "lat": "42.275317",
            "中心经度": "118.878285",
            "中心纬度": "43.239277",
            "子节点个数": "12",
            "级别": "city",
            "父节点编码": "150000",
            "acroutes": "100000"
        },
        {
            "ID": "28",
            "节点编码": "150500",
            "cityName": "通辽市",
            "lon": "122.263119",
            "lat": "43.617429",
            "中心经度": "121.569548",
            "中心纬度": "43.834485",
            "子节点个数": "8",
            "级别": "city",
            "父节点编码": "150000",
            "acroutes": "100000"
        },
        {
            "ID": "29",
            "节点编码": "150600",
            "cityName": "鄂尔多斯市",
            "lon": "109.99029",
            "lat": "39.817179",
            "中心经度": "108.637375",
            "中心纬度": "39.425314",
            "子节点个数": "9",
            "级别": "city",
            "父节点编码": "150000",
            "acroutes": "100000"
        },
        {
            "ID": "30",
            "节点编码": "150700",
            "cityName": "呼伦贝尔市",
            "lon": "119.758168",
            "lat": "49.215333",
            "中心经度": "120.906902",
            "中心纬度": "49.635232",
            "子节点个数": "14",
            "级别": "city",
            "父节点编码": "undefined",
            "acroutes": "100000"
        },
        {
            "ID": "31",
            "节点编码": "150800",
            "cityName": "巴彦淖尔市",
            "lon": "107.416959",
            "lat": "40.757402",
            "中心经度": "107.575749",
            "中心纬度": "41.453305",
            "子节点个数": "7",
            "级别": "city",
            "父节点编码": "150000",
            "acroutes": "100000"
        },
        {
            "ID": "32",
            "节点编码": "150900",
            "cityName": "乌兰察布市",
            "lon": "113.114543",
            "lat": "41.034126",
            "中心经度": "112.443087",
            "中心纬度": "41.696874",
            "子节点个数": "11",
            "级别": "city",
            "父节点编码": "150000",
            "acroutes": "100000"
        },
        {
            "ID": "33",
            "节点编码": "152200",
            "cityName": "兴安盟",
            "lon": "122.070317",
            "lat": "46.076268",
            "中心经度": "121.341355",
            "中心纬度": "46.241397",
            "子节点个数": "6",
            "级别": "city",
            "父节点编码": "150000",
            "acroutes": "100000"
        },
        {
            "ID": "34",
            "节点编码": "152500",
            "cityName": "锡林郭勒盟",
            "lon": "116.090996",
            "lat": "43.944018",
            "中心经度": "115.51632",
            "中心纬度": "44.232965",
            "子节点个数": "12",
            "级别": "city",
            "父节点编码": "150000",
            "acroutes": "100000"
        },
        {
            "ID": "35",
            "节点编码": "152900",
            "cityName": "阿拉善盟",
            "lon": "105.706422",
            "lat": "38.844814",
            "中心经度": "102.42556",
            "中心纬度": "40.532392",
            "子节点个数": "3",
            "级别": "city",
            "父节点编码": "150000",
            "acroutes": "100000"
        },
        {
            "ID": "36",
            "节点编码": "210100",
            "cityName": "沈阳市",
            "lon": "123.429096",
            "lat": "41.796767",
            "中心经度": "123.143796",
            "中心纬度": "42.100641",
            "子节点个数": "13",
            "级别": "city",
            "父节点编码": "210000",
            "acroutes": "100000"
        },
        {
            "ID": "37",
            "节点编码": "210300",
            "cityName": "鞍山市",
            "lon": "122.995632",
            "lat": "41.110626",
            "中心经度": "123.016394",
            "中心纬度": "40.718251",
            "子节点个数": "7",
            "级别": "city",
            "父节点编码": "210000",
            "acroutes": "100000"
        },
        {
            "ID": "38",
            "节点编码": "210400",
            "cityName": "抚顺市",
            "lon": "123.921109",
            "lat": "41.875956",
            "中心经度": "124.662356",
            "中心纬度": "41.837685",
            "子节点个数": "7",
            "级别": "city",
            "父节点编码": "210000",
            "acroutes": "100000"
        },
        {
            "ID": "39",
            "节点编码": "210500",
            "cityName": "本溪市",
            "lon": "123.770519",
            "lat": "41.297909",
            "中心经度": "124.574237",
            "中心纬度": "41.231499",
            "子节点个数": "6",
            "级别": "city",
            "父节点编码": "210000",
            "acroutes": "100000"
        },
        {
            "ID": "40",
            "节点编码": "210600",
            "cityName": "丹东市",
            "lon": "124.383044",
            "lat": "40.124296",
            "中心经度": "124.40518",
            "中心纬度": "40.544775",
            "子节点个数": "6",
            "级别": "city",
            "父节点编码": "210000",
            "acroutes": "100000"
        },
        {
            "ID": "41",
            "节点编码": "210700",
            "cityName": "锦州市",
            "lon": "121.135742",
            "lat": "41.119269",
            "中心经度": "121.618541",
            "中心纬度": "41.461822",
            "子节点个数": "7",
            "级别": "city",
            "父节点编码": "210000",
            "acroutes": "100000"
        },
        {
            "ID": "42",
            "节点编码": "210800",
            "cityName": "营口市",
            "lon": "122.235151",
            "lat": "40.667432",
            "中心经度": "122.456202",
            "中心纬度": "40.391795",
            "子节点个数": "6",
            "级别": "city",
            "父节点编码": "210000",
            "acroutes": "100000"
        },
        {
            "ID": "43",
            "节点编码": "210900",
            "cityName": "阜新市",
            "lon": "121.648962",
            "lat": "42.011796",
            "中心经度": "121.961888",
            "中心纬度": "42.282968",
            "子节点个数": "7",
            "级别": "city",
            "父节点编码": "210000",
            "acroutes": "100000"
        },
        {
            "ID": "44",
            "节点编码": "211000",
            "cityName": "辽阳市",
            "lon": "123.18152",
            "lat": "41.269402",
            "中心经度": "123.251133",
            "中心纬度": "41.184819",
            "子节点个数": "7",
            "级别": "city",
            "父节点编码": "210000",
            "acroutes": "100000"
        },
        {
            "ID": "45",
            "节点编码": "211100",
            "cityName": "盘锦市",
            "lon": "122.06957",
            "lat": "41.124484",
            "中心经度": "121.999309",
            "中心纬度": "41.06851",
            "子节点个数": "4",
            "级别": "city",
            "父节点编码": "210000",
            "acroutes": "100000"
        },
        {
            "ID": "46",
            "节点编码": "211200",
            "cityName": "铁岭市",
            "lon": "123.844279",
            "lat": "42.290585",
            "中心经度": "124.176584",
            "中心纬度": "42.648938",
            "子节点个数": "7",
            "级别": "city",
            "父节点编码": "210000",
            "acroutes": "100000"
        },
        {
            "ID": "47",
            "节点编码": "211300",
            "cityName": "朝阳市",
            "lon": "120.451176",
            "lat": "41.576758",
            "中心经度": "120.021858",
            "中心纬度": "41.516568",
            "子节点个数": "7",
            "级别": "city",
            "父节点编码": "210000",
            "acroutes": "100000"
        },
        {
            "ID": "48",
            "节点编码": "211400",
            "cityName": "葫芦岛市",
            "lon": "120.856394",
            "lat": "40.755572",
            "中心经度": "120.21031",
            "中心纬度": "40.620597",
            "子节点个数": "6",
            "级别": "city",
            "父节点编码": "210000",
            "acroutes": "100000"
        },
        {
            "ID": "49",
            "节点编码": "220100",
            "cityName": "长春市",
            "lon": "125.3245",
            "lat": "43.886841",
            "中心经度": "125.593273",
            "中心纬度": "44.290795",
            "子节点个数": "11",
            "级别": "city",
            "父节点编码": "220000",
            "acroutes": "100000"
        },
        {
            "ID": "50",
            "节点编码": "220200",
            "cityName": "吉林市",
            "lon": "126.55302",
            "lat": "43.843577",
            "中心经度": "126.849983",
            "中心纬度": "43.588212",
            "子节点个数": "9",
            "级别": "city",
            "父节点编码": "220000",
            "acroutes": "100000"
        },
        {
            "ID": "51",
            "节点编码": "220300",
            "cityName": "四平市",
            "lon": "124.370785",
            "lat": "43.170344",
            "中心经度": "124.388756",
            "中心纬度": "43.487587",
            "子节点个数": "5",
            "级别": "city",
            "父节点编码": "220000",
            "acroutes": "100000"
        },
        {
            "ID": "52",
            "节点编码": "220400",
            "cityName": "辽源市",
            "lon": "125.145349",
            "lat": "42.902692",
            "中心经度": "125.311392",
            "中心纬度": "42.814462",
            "子节点个数": "4",
            "级别": "city",
            "父节点编码": "220000",
            "acroutes": "100000"
        },
        {
            "ID": "53",
            "节点编码": "220500",
            "cityName": "通化市",
            "lon": "125.936501",
            "lat": "41.721177",
            "中心经度": "125.955377",
            "中心纬度": "41.964388",
            "子节点个数": "7",
            "级别": "city",
            "父节点编码": "220000",
            "acroutes": "100000"
        },
        {
            "ID": "54",
            "节点编码": "220600",
            "cityName": "白山市",
            "lon": "126.427839",
            "lat": "41.942505",
            "中心经度": "127.290795",
            "中心纬度": "42.074968",
            "子节点个数": "6",
            "级别": "city",
            "父节点编码": "220000",
            "acroutes": "100000"
        },
        {
            "ID": "55",
            "节点编码": "220700",
            "cityName": "松原市",
            "lon": "124.823608",
            "lat": "45.118243",
            "中心经度": "124.48612",
            "中心纬度": "44.807335",
            "子节点个数": "5",
            "级别": "city",
            "父节点编码": "220000",
            "acroutes": "100000"
        },
        {
            "ID": "56",
            "节点编码": "220800",
            "cityName": "白城市",
            "lon": "122.841114",
            "lat": "45.619026",
            "中心经度": "123.019642",
            "中心纬度": "45.354625",
            "子节点个数": "5",
            "级别": "city",
            "父节点编码": "220000",
            "acroutes": "100000"
        },
        {
            "ID": "57",
            "节点编码": "222400",
            "cityName": "延边朝鲜族自治州",
            "lon": "129.513228",
            "lat": "42.904823",
            "中心经度": "129.13087",
            "中心纬度": "43.15089",
            "子节点个数": "8",
            "级别": "city",
            "父节点编码": "220000",
            "acroutes": "100000"
        },
        {
            "ID": "58",
            "节点编码": "230100",
            "cityName": "哈尔滨市",
            "lon": "126.642464",
            "lat": "45.756967",
            "中心经度": "127.966759",
            "中心纬度": "45.648633",
            "子节点个数": "18",
            "级别": "city",
            "父节点编码": "230000",
            "acroutes": "100000"
        },
        {
            "ID": "59",
            "节点编码": "230200",
            "cityName": "齐齐哈尔市",
            "lon": "123.95792",
            "lat": "47.342081",
            "中心经度": "124.557904",
            "中心纬度": "47.710767",
            "子节点个数": "16",
            "级别": "city",
            "父节点编码": "230000",
            "acroutes": "100000"
        },
        {
            "ID": "60",
            "节点编码": "230300",
            "cityName": "鸡西市",
            "lon": "130.975966",
            "lat": "45.300046",
            "中心经度": "132.297639",
            "中心纬度": "45.635227",
            "子节点个数": "9",
            "级别": "city",
            "父节点编码": "230000",
            "acroutes": "100000"
        },
        {
            "ID": "61",
            "节点编码": "230400",
            "cityName": "鹤岗市",
            "lon": "130.277487",
            "lat": "47.332085",
            "中心经度": "130.807059",
            "中心纬度": "47.644529",
            "子节点个数": "8",
            "级别": "city",
            "父节点编码": "230000",
            "acroutes": "100000"
        },
        {
            "ID": "62",
            "节点编码": "230500",
            "cityName": "双鸭山市",
            "lon": "131.157304",
            "lat": "46.643442",
            "中心经度": "132.623042",
            "中心纬度": "46.721849",
            "子节点个数": "8",
            "级别": "city",
            "父节点编码": "230000",
            "acroutes": "100000"
        },
        {
            "ID": "63",
            "节点编码": "230600",
            "cityName": "大庆市",
            "lon": "125.11272",
            "lat": "46.590734",
            "中心经度": "124.705742",
            "中心纬度": "46.357625",
            "子节点个数": "9",
            "级别": "city",
            "父节点编码": "230000",
            "acroutes": "100000"
        },
        {
            "ID": "64",
            "节点编码": "230700",
            "cityName": "伊春市",
            "lon": "128.899396",
            "lat": "47.724775",
            "中心经度": "129.224747",
            "中心纬度": "47.830729",
            "子节点个数": "10",
            "级别": "city",
            "父节点编码": "230000",
            "acroutes": "100000"
        },
        {
            "ID": "65",
            "节点编码": "230800",
            "cityName": "佳木斯市",
            "lon": "130.361634",
            "lat": "46.809606",
            "中心经度": "132.204856",
            "中心纬度": "47.248466",
            "子节点个数": "10",
            "级别": "city",
            "父节点编码": "230000",
            "acroutes": "100000"
        },
        {
            "ID": "66",
            "节点编码": "230900",
            "cityName": "七台河市",
            "lon": "131.015584",
            "lat": "45.771266",
            "中心经度": "130.943937",
            "中心纬度": "45.881675",
            "子节点个数": "4",
            "级别": "city",
            "父节点编码": "230000",
            "acroutes": "100000"
        },
        {
            "ID": "67",
            "节点编码": "231000",
            "cityName": "牡丹江市",
            "lon": "129.618602",
            "lat": "44.582962",
            "中心经度": "129.895544",
            "中心纬度": "44.607512",
            "子节点个数": "10",
            "级别": "city",
            "父节点编码": "230000",
            "acroutes": "100000"
        },
        {
            "ID": "68",
            "节点编码": "231100",
            "cityName": "黑河市",
            "lon": "127.499023",
            "lat": "50.249585",
            "中心经度": "126.988643",
            "中心纬度": "49.282601",
            "子节点个数": "6",
            "级别": "city",
            "父节点编码": "230000",
            "acroutes": "100000"
        },
        {
            "ID": "69",
            "节点编码": "231200",
            "cityName": "绥化市",
            "lon": "126.99293",
            "lat": "46.637393",
            "中心经度": "126.658429",
            "中心纬度": "46.904079",
            "子节点个数": "10",
            "级别": "city",
            "父节点编码": "230000",
            "acroutes": "100000"
        },
        {
            "ID": "70",
            "节点编码": "232700",
            "cityName": "大兴安岭地区",
            "lon": "124.711526",
            "lat": "52.335262",
            "中心经度": "124.201147",
            "中心纬度": "52.341079",
            "子节点个数": "4",
            "级别": "city",
            "父节点编码": "230000",
            "acroutes": "100000"
        },
        {
            "ID": "71",
            "节点编码": "320100",
            "cityName": "南京市",
            "lon": "118.767413",
            "lat": "32.041544",
            "中心经度": "118.847868",
            "中心纬度": "31.927726",
            "子节点个数": "11",
            "级别": "city",
            "父节点编码": "320000",
            "acroutes": "100000"
        },
        {
            "ID": "72",
            "节点编码": "320200",
            "cityName": "无锡市",
            "lon": "120.301663",
            "lat": "31.574729",
            "子节点个数": "7",
            "级别": "city",
            "父节点编码": "320000",
            "acroutes": "100000"
        },
        {
            "ID": "73",
            "节点编码": "320300",
            "cityName": "徐州市",
            "lon": "117.184811",
            "lat": "34.261792",
            "中心经度": "117.521565",
            "中心纬度": "34.355594",
            "子节点个数": "10",
            "级别": "city",
            "父节点编码": "320000",
            "acroutes": "100000"
        },
        {
            "ID": "74",
            "节点编码": "320400",
            "cityName": "常州市",
            "lon": "119.946973",
            "lat": "31.772752",
            "中心经度": "119.641979",
            "中心纬度": "31.623547",
            "子节点个数": "6",
            "级别": "city",
            "父节点编码": "320000",
            "acroutes": "100000"
        },
        {
            "ID": "75",
            "节点编码": "320500",
            "cityName": "苏州市",
            "lon": "120.619585",
            "lat": "31.299379",
            "中心经度": "120.660806",
            "中心纬度": "31.382865",
            "子节点个数": "9",
            "级别": "city",
            "父节点编码": "320000",
            "acroutes": "100000"
        },
        {
            "ID": "76",
            "节点编码": "320600",
            "cityName": "南通市",
            "lon": "120.864608",
            "lat": "32.016212",
            "中心经度": "121.047928",
            "中心纬度": "32.182334",
            "子节点个数": "7",
            "级别": "city",
            "父节点编码": "320000",
            "acroutes": "100000"
        },
        {
            "ID": "77",
            "节点编码": "320700",
            "cityName": "连云港市",
            "lon": "119.178821",
            "lat": "34.600018",
            "中心经度": "119.144784",
            "中心纬度": "34.536075",
            "子节点个数": "6",
            "级别": "city",
            "父节点编码": "320000",
            "acroutes": "100000"
        },
        {
            "ID": "78",
            "节点编码": "320800",
            "cityName": "淮安市",
            "lon": "119.021265",
            "lat": "33.597506",
            "中心经度": "118.971034",
            "中心纬度": "33.352326",
            "子节点个数": "7",
            "级别": "city",
            "父节点编码": "320000",
            "acroutes": "100000"
        },
        {
            "ID": "79",
            "节点编码": "320900",
            "cityName": "盐城市",
            "lon": "120.139998",
            "lat": "33.377631",
            "中心经度": "120.19868",
            "中心纬度": "33.516581",
            "子节点个数": "9",
            "级别": "city",
            "父节点编码": "320000",
            "acroutes": "100000"
        },
        {
            "ID": "80",
            "节点编码": "321000",
            "cityName": "扬州市",
            "lon": "119.421003",
            "lat": "32.393159",
            "中心经度": "119.479719",
            "中心纬度": "32.737224",
            "子节点个数": "6",
            "级别": "city",
            "父节点编码": "320000",
            "acroutes": "100000"
        },
        {
            "ID": "81",
            "节点编码": "321100",
            "cityName": "镇江市",
            "lon": "119.452753",
            "lat": "32.204402",
            "中心经度": "119.458183",
            "中心纬度": "32.014028",
            "子节点个数": "6",
            "级别": "city",
            "父节点编码": "320000",
            "acroutes": "100000"
        },
        {
            "ID": "82",
            "节点编码": "321200",
            "cityName": "泰州市",
            "lon": "119.915176",
            "lat": "32.484882",
            "中心经度": "120.060841",
            "中心纬度": "32.571433",
            "子节点个数": "6",
            "级别": "city",
            "父节点编码": "320000",
            "acroutes": "100000"
        },
        {
            "ID": "83",
            "节点编码": "321300",
            "cityName": "宿迁市",
            "lon": "118.275162",
            "lat": "33.963008",
            "中心经度": "118.526352",
            "中心纬度": "33.784713",
            "子节点个数": "5",
            "级别": "city",
            "父节点编码": "320000",
            "acroutes": "100000"
        },
        {
            "ID": "84",
            "节点编码": "330100",
            "cityName": "杭州市",
            "lon": "120.153576",
            "lat": "30.287459",
            "中心经度": "119.476498",
            "中心纬度": "29.898918",
            "子节点个数": "13",
            "级别": "city",
            "父节点编码": "330000",
            "acroutes": "100000"
        },
        {
            "ID": "85",
            "节点编码": "330200",
            "cityName": "宁波市",
            "lon": "121.549792",
            "lat": "29.868388",
            "中心经度": "121.479174",
            "中心纬度": "29.733017",
            "子节点个数": "10",
            "级别": "city",
            "父节点编码": "330000",
            "acroutes": "100000"
        },
        {
            "ID": "86",
            "节点编码": "330300",
            "cityName": "温州市",
            "lon": "120.672111",
            "lat": "28.000575",
            "中心经度": "120.463912",
            "中心纬度": "27.894726",
            "子节点个数": "12",
            "级别": "city",
            "父节点编码": "330000",
            "acroutes": "100000"
        },
        {
            "ID": "87",
            "节点编码": "330400",
            "cityName": "嘉兴市",
            "lon": "120.750865",
            "lat": "30.762653",
            "中心经度": "120.783487",
            "中心纬度": "30.620063",
            "子节点个数": "7",
            "级别": "city",
            "父节点编码": "330000",
            "acroutes": "100000"
        },
        {
            "ID": "88",
            "节点编码": "330500",
            "cityName": "湖州市",
            "lon": "120.102398",
            "lat": "30.867198",
            "中心经度": "119.873663",
            "中心纬度": "30.743058",
            "子节点个数": "5",
            "级别": "city",
            "父节点编码": "330000",
            "acroutes": "100000"
        },
        {
            "ID": "89",
            "节点编码": "330600",
            "cityName": "绍兴市",
            "lon": "120.582112",
            "lat": "29.997117",
            "中心经度": "120.640933",
            "中心纬度": "29.732893",
            "子节点个数": "6",
            "级别": "city",
            "父节点编码": "330000",
            "acroutes": "100000"
        },
        {
            "ID": "90",
            "节点编码": "330700",
            "cityName": "金华市",
            "lon": "119.649506",
            "lat": "29.089524",
            "中心经度": "119.957007",
            "中心纬度": "29.115117",
            "子节点个数": "9",
            "级别": "city",
            "父节点编码": "330000",
            "acroutes": "100000"
        },
        {
            "ID": "91",
            "节点编码": "330800",
            "cityName": "衢州市",
            "lon": "118.87263",
            "lat": "28.941708",
            "中心经度": "118.679569",
            "中心纬度": "28.932446",
            "子节点个数": "6",
            "级别": "city",
            "父节点编码": "330000",
            "acroutes": "100000"
        },
        {
            "ID": "92",
            "节点编码": "331000",
            "cityName": "台州市",
            "lon": "121.428599",
            "lat": "28.661378",
            "中心经度": "121.136679",
            "中心纬度": "28.757098",
            "子节点个数": "9",
            "级别": "city",
            "父节点编码": "330000",
            "acroutes": "100000"
        },
        {
            "ID": "93",
            "节点编码": "331100",
            "cityName": "丽水市",
            "lon": "119.921786",
            "lat": "28.451993",
            "中心经度": "119.517145",
            "中心纬度": "28.197644",
            "子节点个数": "9",
            "级别": "city",
            "父节点编码": "330000",
            "acroutes": "100000"
        },
        {
            "ID": "94",
            "节点编码": "340100",
            "cityName": "合肥市",
            "lon": "117.283042",
            "lat": "31.86119",
            "中心经度": "117.360447",
            "中心纬度": "31.762594",
            "子节点个数": "9",
            "级别": "city",
            "父节点编码": "340000",
            "acroutes": "100000"
        },
        {
            "ID": "95",
            "节点编码": "340200",
            "cityName": "芜湖市",
            "lon": "118.376451",
            "lat": "31.326319",
            "中心经度": "118.13997",
            "中心纬度": "31.160935",
            "子节点个数": "7",
            "级别": "city",
            "父节点编码": "340000",
            "acroutes": "100000"
        },
        {
            "ID": "96",
            "节点编码": "340300",
            "cityName": "蚌埠市",
            "lon": "117.363228",
            "lat": "32.939667",
            "中心经度": "117.330324",
            "中心纬度": "33.107951",
            "子节点个数": "7",
            "级别": "city",
            "父节点编码": "340000",
            "acroutes": "100000"
        },
        {
            "ID": "97",
            "节点编码": "340400",
            "cityName": "淮南市",
            "lon": "117.018329",
            "lat": "32.647574",
            "中心经度": "116.773391",
            "中心纬度": "32.47172",
            "子节点个数": "7",
            "级别": "city",
            "父节点编码": "340000",
            "acroutes": "100000"
        },
        {
            "ID": "98",
            "节点编码": "340500",
            "cityName": "马鞍山市",
            "lon": "118.507906",
            "lat": "31.689362",
            "中心经度": "118.369758",
            "中心纬度": "31.637138",
            "子节点个数": "6",
            "级别": "city",
            "父节点编码": "undefined",
            "acroutes": "100000"
        },
        {
            "ID": "99",
            "节点编码": "340600",
            "cityName": "淮北市",
            "lon": "116.794664",
            "lat": "33.971707",
            "中心经度": "116.74441",
            "中心纬度": "33.720047",
            "子节点个数": "4",
            "级别": "city",
            "父节点编码": "340000",
            "acroutes": "100000"
        },
        {
            "ID": "100",
            "节点编码": "340700",
            "cityName": "铜陵市",
            "lon": "117.816576",
            "lat": "30.929935",
            "中心经度": "117.566978",
            "中心纬度": "30.888245",
            "子节点个数": "4",
            "级别": "city",
            "父节点编码": "340000",
            "acroutes": "100000"
        },
        {
            "ID": "101",
            "节点编码": "340800",
            "cityName": "安庆市",
            "lon": "117.043551",
            "lat": "30.50883",
            "中心经度": "116.451502",
            "中心纬度": "30.574825",
            "子节点个数": "10",
            "级别": "city",
            "父节点编码": "340000",
            "acroutes": "100000"
        },
        {
            "ID": "102",
            "节点编码": "341000",
            "cityName": "黄山市",
            "lon": "118.317325",
            "lat": "29.709239",
            "中心经度": "118.076088",
            "中心纬度": "29.904836",
            "子节点个数": "7",
            "级别": "city",
            "父节点编码": "340000",
            "acroutes": "100000"
        },
        {
            "ID": "103",
            "节点编码": "341100",
            "cityName": "滁州市",
            "lon": "118.316264",
            "lat": "32.303627",
            "中心经度": "118.107896",
            "中心纬度": "32.543514",
            "子节点个数": "8",
            "级别": "city",
            "父节点编码": "340000",
            "acroutes": "100000"
        },
        {
            "ID": "104",
            "节点编码": "341200",
            "cityName": "阜阳市",
            "lon": "115.819729",
            "lat": "32.896969",
            "中心经度": "115.709049",
            "中心纬度": "32.916536",
            "子节点个数": "8",
            "级别": "city",
            "父节点编码": "340000",
            "acroutes": "100000"
        },
        {
            "ID": "105",
            "节点编码": "341300",
            "cityName": "宿州市",
            "lon": "116.984084",
            "lat": "33.633891",
            "中心经度": "117.213919",
            "中心纬度": "33.860274",
            "子节点个数": "5",
            "级别": "city",
            "父节点编码": "340000",
            "acroutes": "100000"
        },
        {
            "ID": "106",
            "节点编码": "341500",
            "cityName": "六安市",
            "lon": "116.507676",
            "lat": "31.752889",
            "中心经度": "116.23409",
            "中心纬度": "31.659225",
            "子节点个数": "7",
            "级别": "city",
            "父节点编码": "340000",
            "acroutes": "100000"
        },
        {
            "ID": "107",
            "节点编码": "341600",
            "cityName": "亳州市",
            "lon": "115.782939",
            "lat": "33.869338",
            "中心经度": "116.185025",
            "中心纬度": "33.435253",
            "子节点个数": "4",
            "级别": "city",
            "父节点编码": "340000",
            "acroutes": "100000"
        },
        {
            "ID": "108",
            "节点编码": "341700",
            "cityName": "池州市",
            "lon": "117.489157",
            "lat": "30.656037",
            "中心经度": "117.371465",
            "中心纬度": "30.282082",
            "子节点个数": "4",
            "级别": "city",
            "父节点编码": "340000",
            "acroutes": "100000"
        },
        {
            "ID": "109",
            "节点编码": "341800",
            "cityName": "宣城市",
            "lon": "118.757995",
            "lat": "30.945667",
            "中心经度": "118.857477",
            "中心纬度": "30.684955",
            "子节点个数": "7",
            "级别": "city",
            "父节点编码": "340000",
            "acroutes": "100000"
        },
        {
            "ID": "110",
            "节点编码": "350100",
            "cityName": "福州市",
            "lon": "119.306239",
            "lat": "26.075302",
            "中心经度": "119.200519",
            "中心纬度": "26.047886",
            "子节点个数": "13",
            "级别": "city",
            "父节点编码": "350000",
            "acroutes": "100000"
        },
        {
            "ID": "111",
            "节点编码": "350200",
            "cityName": "厦门市",
            "lon": "118.11022",
            "lat": "24.490474",
            "中心经度": "118.123854",
            "中心纬度": "24.676398",
            "子节点个数": "6",
            "级别": "city",
            "父节点编码": "350000",
            "acroutes": "100000"
        },
        {
            "ID": "112",
            "节点编码": "350300",
            "cityName": "莆田市",
            "lon": "119.007558",
            "lat": "25.431011",
            "中心经度": "118.894712",
            "中心纬度": "25.445304",
            "子节点个数": "5",
            "级别": "city",
            "父节点编码": "350000",
            "acroutes": "100000"
        },
        {
            "ID": "113",
            "节点编码": "350400",
            "cityName": "三明市",
            "lon": "117.635001",
            "lat": "26.265444",
            "中心经度": "117.400007",
            "中心纬度": "26.298093",
            "子节点个数": "11",
            "级别": "city",
            "父节点编码": "350000",
            "acroutes": "100000"
        },
        {
            "ID": "114",
            "节点编码": "350500",
            "cityName": "泉州市",
            "lon": "118.589421",
            "lat": "24.908853",
            "中心经度": "118.267651",
            "中心纬度": "25.202187",
            "子节点个数": "12",
            "级别": "city",
            "父节点编码": "350000",
            "acroutes": "100000"
        },
        {
            "ID": "115",
            "节点编码": "350600",
            "cityName": "漳州市",
            "lon": "117.661801",
            "lat": "24.510897",
            "中心经度": "117.458578",
            "中心纬度": "24.330766",
            "子节点个数": "11",
            "级别": "city",
            "父节点编码": "350000",
            "acroutes": "100000"
        },
        {
            "ID": "116",
            "节点编码": "350700",
            "cityName": "南平市",
            "lon": "118.178459",
            "lat": "26.635627",
            "中心经度": "118.147051",
            "中心纬度": "27.338631",
            "子节点个数": "10",
            "级别": "city",
            "父节点编码": "350000",
            "acroutes": "100000"
        },
        {
            "ID": "117",
            "节点编码": "350800",
            "cityName": "龙岩市",
            "lon": "117.02978",
            "lat": "25.091603",
            "中心经度": "116.74379",
            "中心纬度": "25.291574",
            "子节点个数": "7",
            "级别": "city",
            "父节点编码": "350000",
            "acroutes": "100000"
        },
        {
            "ID": "118",
            "节点编码": "350900",
            "cityName": "宁德市",
            "lon": "119.527082",
            "lat": "26.65924",
            "中心经度": "119.489399",
            "中心纬度": "26.971518",
            "子节点个数": "9",
            "级别": "city",
            "父节点编码": "350000",
            "acroutes": "100000"
        },
        {
            "ID": "119",
            "节点编码": "360100",
            "cityName": "南昌市",
            "lon": "115.892151",
            "lat": "28.676493",
            "中心经度": "116.023468",
            "中心纬度": "28.647424",
            "子节点个数": "9",
            "级别": "city",
            "父节点编码": "360000",
            "acroutes": "100000"
        },
        {
            "ID": "120",
            "节点编码": "360200",
            "cityName": "景德镇市",
            "lon": "117.214664",
            "lat": "29.29256",
            "中心经度": "117.27529",
            "中心纬度": "29.305934",
            "子节点个数": "4",
            "级别": "city",
            "父节点编码": "360000",
            "acroutes": "100000"
        },
        {
            "ID": "121",
            "节点编码": "360300",
            "cityName": "萍乡市",
            "lon": "113.852186",
            "lat": "27.622946",
            "中心经度": "113.908082",
            "中心纬度": "27.509931",
            "子节点个数": "5",
            "级别": "city",
            "父节点编码": "360000",
            "acroutes": "100000"
        },
        {
            "ID": "122",
            "节点编码": "360400",
            "cityName": "九江市",
            "lon": "115.992811",
            "lat": "29.712034",
            "中心经度": "115.458122",
            "中心纬度": "29.320395",
            "子节点个数": "13",
            "级别": "city",
            "父节点编码": "360000",
            "acroutes": "100000"
        },
        {
            "ID": "123",
            "节点编码": "360500",
            "cityName": "新余市",
            "lon": "114.930835",
            "lat": "27.810834",
            "中心经度": "114.857327",
            "中心纬度": "27.842246",
            "子节点个数": "2",
            "级别": "city",
            "父节点编码": "360000",
            "acroutes": "100000"
        },
        {
            "ID": "124",
            "节点编码": "360600",
            "cityName": "鹰潭市",
            "lon": "117.033838",
            "lat": "28.238638",
            "中心经度": "117.112472",
            "中心纬度": "28.221953",
            "子节点个数": "3",
            "级别": "city",
            "父节点编码": "360000",
            "acroutes": "100000"
        },
        {
            "ID": "125",
            "节点编码": "360700",
            "cityName": "赣州市",
            "lon": "114.940278",
            "lat": "25.85097",
            "中心经度": "115.279217",
            "中心纬度": "25.710043",
            "子节点个数": "18",
            "级别": "city",
            "父节点编码": "360000",
            "acroutes": "100000"
        },
        {
            "ID": "126",
            "节点编码": "360800",
            "cityName": "吉安市",
            "lon": "114.986373",
            "lat": "27.111699",
            "中心经度": "114.830492",
            "中心纬度": "26.972536",
            "子节点个数": "13",
            "级别": "city",
            "父节点编码": "360000",
            "acroutes": "100000"
        },
        {
            "ID": "127",
            "节点编码": "360900",
            "cityName": "宜春市",
            "lon": "114.391136",
            "lat": "27.8043",
            "中心经度": "114.978015",
            "中心纬度": "28.304641",
            "子节点个数": "10",
            "级别": "city",
            "父节点编码": "360000",
            "acroutes": "100000"
        },
        {
            "ID": "128",
            "节点编码": "361000",
            "cityName": "抚州市",
            "lon": "116.358351",
            "lat": "27.98385",
            "中心经度": "116.439325",
            "中心纬度": "27.509083",
            "子节点个数": "11",
            "级别": "city",
            "父节点编码": "360000",
            "acroutes": "100000"
        },
        {
            "ID": "129",
            "节点编码": "361100",
            "cityName": "上饶市",
            "lon": "117.971185",
            "lat": "28.44442",
            "中心经度": "117.476403",
            "中心纬度": "28.772739",
            "子节点个数": "12",
            "级别": "city",
            "父节点编码": "360000",
            "acroutes": "100000"
        },
        {
            "ID": "130",
            "节点编码": "370100",
            "cityName": "济南市",
            "lon": "117.000923",
            "lat": "36.675807",
            "中心经度": "117.221211",
            "中心纬度": "36.640013",
            "子节点个数": "12",
            "级别": "city",
            "父节点编码": "370000",
            "acroutes": "100000"
        },
        {
            "ID": "131",
            "节点编码": "370200",
            "cityName": "青岛市",
            "lon": "120.355173",
            "lat": "36.082982",
            "中心经度": "120.150883",
            "中心纬度": "36.451227",
            "子节点个数": "10",
            "级别": "city",
            "父节点编码": "370000",
            "acroutes": "100000"
        },
        {
            "ID": "132",
            "节点编码": "370300",
            "cityName": "淄博市",
            "lon": "118.047648",
            "lat": "36.814939",
            "中心经度": "118.058673",
            "中心纬度": "36.610971",
            "子节点个数": "8",
            "级别": "city",
            "父节点编码": "370000",
            "acroutes": "100000"
        },
        {
            "ID": "133",
            "节点编码": "370400",
            "cityName": "枣庄市",
            "lon": "117.557964",
            "lat": "34.856424",
            "中心经度": "117.39817",
            "中心纬度": "34.916234",
            "子节点个数": "6",
            "级别": "city",
            "父节点编码": "370000",
            "acroutes": "100000"
        },
        {
            "ID": "134",
            "节点编码": "370500",
            "cityName": "东营市",
            "lon": "118.66471",
            "lat": "37.434564",
            "中心经度": "118.64357",
            "中心纬度": "37.639575",
            "子节点个数": "5",
            "级别": "city",
            "父节点编码": "370000",
            "acroutes": "100000"
        },
        {
            "ID": "135",
            "节点编码": "370600",
            "cityName": "烟台市",
            "lon": "121.391382",
            "lat": "37.539297",
            "中心经度": "120.804685",
            "中心纬度": "37.241819",
            "子节点个数": "11",
            "级别": "city",
            "父节点编码": "370000",
            "acroutes": "100000"
        },
        {
            "ID": "136",
            "节点编码": "370700",
            "cityName": "潍坊市",
            "lon": "119.107078",
            "lat": "36.70925",
            "中心经度": "119.077723",
            "中心纬度": "36.554349",
            "子节点个数": "12",
            "级别": "city",
            "父节点编码": "370000",
            "acroutes": "100000"
        },
        {
            "ID": "137",
            "节点编码": "370800",
            "cityName": "济宁市",
            "lon": "116.587245",
            "lat": "35.415393",
            "中心经度": "116.740918",
            "中心纬度": "35.371173",
            "子节点个数": "11",
            "级别": "city",
            "父节点编码": "370000",
            "acroutes": "100000"
        },
        {
            "ID": "138",
            "节点编码": "370900",
            "cityName": "泰安市",
            "lon": "117.129063",
            "lat": "36.194968",
            "中心经度": "117.030841",
            "中心纬度": "36.002274",
            "子节点个数": "6",
            "级别": "city",
            "父节点编码": "370000",
            "acroutes": "100000"
        },
        {
            "ID": "139",
            "节点编码": "371000",
            "cityName": "威海市",
            "lon": "122.116394",
            "lat": "37.509691",
            "中心经度": "122.000805",
            "中心纬度": "37.118677",
            "子节点个数": "4",
            "级别": "city",
            "父节点编码": "370000",
            "acroutes": "100000"
        },
        {
            "ID": "140",
            "节点编码": "371100",
            "cityName": "日照市",
            "lon": "119.461208",
            "lat": "35.428588",
            "中心经度": "119.146546",
            "中心纬度": "35.57855",
            "子节点个数": "4",
            "级别": "city",
            "父节点编码": "370000",
            "acroutes": "100000"
        },
        {
            "ID": "141",
            "节点编码": "371300",
            "cityName": "临沂市",
            "lon": "118.326443",
            "lat": "35.065282",
            "中心经度": "118.286421",
            "中心纬度": "35.311899",
            "子节点个数": "12",
            "级别": "city",
            "父节点编码": "370000",
            "acroutes": "100000"
        },
        {
            "ID": "142",
            "节点编码": "371400",
            "cityName": "德州市",
            "lon": "116.307428",
            "lat": "37.453968",
            "中心经度": "116.653941",
            "中心纬度": "37.251267",
            "子节点个数": "11",
            "级别": "city",
            "父节点编码": "370000",
            "acroutes": "100000"
        },
        {
            "ID": "143",
            "节点编码": "371500",
            "cityName": "聊城市",
            "lon": "115.980367",
            "lat": "36.456013",
            "中心经度": "115.887682",
            "中心纬度": "36.460117",
            "子节点个数": "8",
            "级别": "city",
            "父节点编码": "370000",
            "acroutes": "100000"
        },
        {
            "ID": "144",
            "节点编码": "371600",
            "cityName": "滨州市",
            "lon": "118.016974",
            "lat": "37.383542",
            "中心经度": "117.847293",
            "中心纬度": "37.542609",
            "子节点个数": "7",
            "级别": "city",
            "父节点编码": "370000",
            "acroutes": "100000"
        },
        {
            "ID": "145",
            "节点编码": "371700",
            "cityName": "菏泽市",
            "lon": "115.469381",
            "lat": "35.246531",
            "中心经度": "115.698213",
            "中心纬度": "35.152257",
            "子节点个数": "9",
            "级别": "city",
            "父节点编码": "370000",
            "acroutes": "100000"
        },
        {
            "ID": "146",
            "节点编码": "410100",
            "cityName": "郑州市",
            "lon": "113.665412",
            "lat": "34.757975",
            "中心经度": "113.477391",
            "中心纬度": "34.626256",
            "子节点个数": "12",
            "级别": "city",
            "父节点编码": "410000",
            "acroutes": "100000"
        },
        {
            "ID": "147",
            "节点编码": "410200",
            "cityName": "开封市",
            "lon": "114.341447",
            "lat": "34.797049",
            "中心经度": "114.541763",
            "中心纬度": "34.604497",
            "子节点个数": "9",
            "级别": "city",
            "父节点编码": "410000",
            "acroutes": "100000"
        },
        {
            "ID": "148",
            "节点编码": "410300",
            "cityName": "洛阳市",
            "lon": "112.434468",
            "lat": "34.663041",
            "中心经度": "112.038509",
            "中心纬度": "34.293198",
            "子节点个数": "14",
            "级别": "city",
            "父节点编码": "410000",
            "acroutes": "100000"
        },
        {
            "ID": "149",
            "节点编码": "410400",
            "cityName": "平顶山市",
            "lon": "113.307718",
            "lat": "33.735241",
            "中心经度": "113.016514",
            "中心纬度": "33.795715",
            "子节点个数": "10",
            "级别": "city",
            "父节点编码": "410000",
            "acroutes": "100000"
        },
        {
            "ID": "150",
            "节点编码": "410500",
            "cityName": "安阳市",
            "lon": "114.352482",
            "lat": "36.103442",
            "中心经度": "114.358257",
            "中心纬度": "35.878529",
            "子节点个数": "9",
            "级别": "city",
            "父节点编码": "410000",
            "acroutes": "100000"
        },
        {
            "ID": "151",
            "节点编码": "410600",
            "cityName": "鹤壁市",
            "lon": "114.295444",
            "lat": "35.748236",
            "中心经度": "114.31602",
            "中心纬度": "35.721499",
            "子节点个数": "5",
            "级别": "city",
            "父节点编码": "410000",
            "acroutes": "100000"
        },
        {
            "ID": "152",
            "节点编码": "410700",
            "cityName": "新乡市",
            "lon": "113.883991",
            "lat": "35.302616",
            "中心经度": "114.095247",
            "中心纬度": "35.263966",
            "子节点个数": "12",
            "级别": "city",
            "父节点编码": "410000",
            "acroutes": "100000"
        },
        {
            "ID": "153",
            "节点编码": "410800",
            "cityName": "焦作市",
            "lon": "113.238266",
            "lat": "35.23904",
            "中心经度": "113.137719",
            "中心纬度": "35.114644",
            "子节点个数": "10",
            "级别": "city",
            "父节点编码": "410000",
            "acroutes": "100000"
        },
        {
            "ID": "154",
            "节点编码": "410900",
            "cityName": "濮阳市",
            "lon": "115.041299",
            "lat": "35.768234",
            "中心经度": "115.287416",
            "中心纬度": "35.809288",
            "子节点个数": "6",
            "级别": "city",
            "父节点编码": "410000",
            "acroutes": "100000"
        },
        {
            "ID": "155",
            "节点编码": "411000",
            "cityName": "许昌市",
            "lon": "113.826063",
            "lat": "34.022956",
            "中心经度": "113.715606",
            "中心纬度": "34.071457",
            "子节点个数": "6",
            "级别": "city",
            "父节点编码": "410000",
            "acroutes": "100000"
        },
        {
            "ID": "156",
            "节点编码": "411100",
            "cityName": "漯河市",
            "lon": "114.026405",
            "lat": "33.575855",
            "中心经度": "113.905678",
            "中心纬度": "33.65448",
            "子节点个数": "5",
            "级别": "city",
            "父节点编码": "410000",
            "acroutes": "100000"
        },
        {
            "ID": "157",
            "节点编码": "411200",
            "cityName": "三门峡市",
            "lon": "111.194099",
            "lat": "34.777338",
            "中心经度": "111.112608",
            "中心纬度": "34.36205",
            "子节点个数": "6",
            "级别": "city",
            "父节点编码": "410000",
            "acroutes": "100000"
        },
        {
            "ID": "158",
            "节点编码": "411300",
            "cityName": "南阳市",
            "lon": "112.540918",
            "lat": "32.999082",
            "中心经度": "112.288385",
            "中心纬度": "33.044723",
            "子节点个数": "13",
            "级别": "city",
            "父节点编码": "410000",
            "acroutes": "100000"
        },
        {
            "ID": "159",
            "节点编码": "411400",
            "cityName": "商丘市",
            "lon": "115.650497",
            "lat": "34.437054",
            "中心经度": "115.702245",
            "中心纬度": "34.28898",
            "子节点个数": "9",
            "级别": "city",
            "父节点编码": "410000",
            "acroutes": "100000"
        },
        {
            "ID": "160",
            "节点编码": "411500",
            "cityName": "信阳市",
            "lon": "114.075031",
            "lat": "32.123274",
            "中心经度": "114.889128",
            "中心纬度": "32.080437",
            "子节点个数": "10",
            "级别": "city",
            "父节点编码": "410000",
            "acroutes": "100000"
        },
        {
            "ID": "161",
            "节点编码": "411600",
            "cityName": "周口市",
            "lon": "114.649653",
            "lat": "33.620357",
            "中心经度": "114.883192",
            "中心纬度": "33.721762",
            "子节点个数": "10",
            "级别": "city",
            "父节点编码": "410000",
            "acroutes": "100000"
        },
        {
            "ID": "162",
            "节点编码": "411700",
            "cityName": "驻马店市",
            "lon": "114.024736",
            "lat": "32.980169",
            "中心经度": "114.156353",
            "中心纬度": "32.922684",
            "子节点个数": "10",
            "级别": "city",
            "父节点编码": "410000",
            "acroutes": "100000"
        },
        {
            "ID": "163",
            "节点编码": "419001",
            "cityName": "济源市",
            "lon": "112.590047",
            "lat": "35.090378",
            "中心经度": "112.398673",
            "中心纬度": "35.099131",
            "子节点个数": "0",
            "级别": "city",
            "父节点编码": "410000",
            "acroutes": "100000"
        },
        {
            "ID": "164",
            "节点编码": "420100",
            "cityName": "武汉市",
            "lon": "114.298572",
            "lat": "30.584355",
            "中心经度": "114.348204",
            "中心纬度": "30.623025",
            "子节点个数": "13",
            "级别": "city",
            "父节点编码": "420000",
            "acroutes": "100000"
        },
        {
            "ID": "165",
            "节点编码": "420200",
            "cityName": "黄石市",
            "lon": "115.077048",
            "lat": "30.220074",
            "中心经度": "115.02984",
            "中心纬度": "29.925181",
            "子节点个数": "6",
            "级别": "city",
            "父节点编码": "420000",
            "acroutes": "100000"
        },
        {
            "ID": "166",
            "节点编码": "420300",
            "cityName": "十堰市",
            "lon": "110.787916",
            "lat": "32.646907",
            "中心经度": "110.446495",
            "中心纬度": "32.45798",
            "子节点个数": "8",
            "级别": "city",
            "父节点编码": "420000",
            "acroutes": "100000"
        },
        {
            "ID": "167",
            "节点编码": "420500",
            "cityName": "宜昌市",
            "lon": "111.290843",
            "lat": "30.702636",
            "中心经度": "111.140801",
            "中心纬度": "30.747312",
            "子节点个数": "13",
            "级别": "city",
            "父节点编码": "420000",
            "acroutes": "100000"
        },
        {
            "ID": "168",
            "节点编码": "420600",
            "cityName": "襄阳市",
            "lon": "112.144146",
            "lat": "32.042426",
            "中心经度": "111.944787",
            "中心纬度": "31.930988",
            "子节点个数": "9",
            "级别": "city",
            "父节点编码": "420000",
            "acroutes": "100000"
        },
        {
            "ID": "169",
            "节点编码": "420700",
            "cityName": "鄂州市",
            "lon": "114.890593",
            "lat": "30.396536",
            "中心经度": "114.759738",
            "中心纬度": "30.326618",
            "子节点个数": "3",
            "级别": "city",
            "父节点编码": "420000",
            "acroutes": "100000"
        },
        {
            "ID": "170",
            "节点编码": "420800",
            "cityName": "荆门市",
            "lon": "112.204251",
            "lat": "31.03542",
            "中心经度": "112.614753",
            "中心纬度": "31.06948",
            "子节点个数": "5",
            "级别": "city",
            "父节点编码": "420000",
            "acroutes": "100000"
        },
        {
            "ID": "171",
            "节点编码": "420900",
            "cityName": "孝感市",
            "lon": "113.926655",
            "lat": "30.926423",
            "中心经度": "113.885608",
            "中心纬度": "31.118116",
            "子节点个数": "7",
            "级别": "city",
            "父节点编码": "420000",
            "acroutes": "100000"
        },
        {
            "ID": "172",
            "节点编码": "421000",
            "cityName": "荆州市",
            "lon": "112.23813",
            "lat": "30.326857",
            "中心经度": "112.574526",
            "中心纬度": "29.995051",
            "子节点个数": "8",
            "级别": "city",
            "父节点编码": "420000",
            "acroutes": "100000"
        },
        {
            "ID": "173",
            "节点编码": "421100",
            "cityName": "黄冈市",
            "lon": "114.879365",
            "lat": "30.447711",
            "中心经度": "115.343867",
            "中心纬度": "30.717343",
            "子节点个数": "10",
            "级别": "city",
            "父节点编码": "420000",
            "acroutes": "100000"
        },
        {
            "ID": "174",
            "节点编码": "421200",
            "cityName": "咸宁市",
            "lon": "114.328963",
            "lat": "29.832798",
            "中心经度": "114.180828",
            "中心纬度": "29.622169",
            "子节点个数": "6",
            "级别": "city",
            "父节点编码": "420000",
            "acroutes": "100000"
        },
        {
            "ID": "175",
            "节点编码": "421300",
            "cityName": "随州市",
            "lon": "113.37377",
            "lat": "31.717497",
            "中心经度": "113.429995",
            "中心纬度": "31.828026",
            "子节点个数": "3",
            "级别": "city",
            "父节点编码": "420000",
            "acroutes": "100000"
        },
        {
            "ID": "176",
            "节点编码": "422800",
            "cityName": "恩施土家族苗族自治州",
            "lon": "109.48699",
            "lat": "30.283114",
            "中心经度": "109.555117",
            "中心纬度": "30.191808",
            "子节点个数": "8",
            "级别": "city",
            "父节点编码": "420000",
            "acroutes": "100000"
        },
        {
            "ID": "177",
            "节点编码": "429004",
            "cityName": "仙桃市",
            "lon": "113.453974",
            "lat": "30.364953",
            "中心经度": "113.381345",
            "中心纬度": "30.287564",
            "子节点个数": "0",
            "级别": "city",
            "父节点编码": "420000",
            "acroutes": "100000"
        },
        {
            "ID": "178",
            "节点编码": "429005",
            "cityName": "潜江市",
            "lon": "112.896866",
            "lat": "30.421215",
            "中心经度": "112.762642",
            "中心纬度": "30.336071",
            "子节点个数": "0",
            "级别": "city",
            "父节点编码": "420000",
            "acroutes": "100000"
        },
        {
            "ID": "179",
            "节点编码": "429006",
            "cityName": "天门市",
            "lon": "113.165862",
            "lat": "30.653061",
            "中心经度": "113.114735",
            "中心纬度": "30.642494",
            "子节点个数": "0",
            "级别": "city",
            "父节点编码": "420000",
            "acroutes": "100000"
        },
        {
            "ID": "180",
            "节点编码": "429021",
            "cityName": "神农架林区",
            "lon": "110.671525",
            "lat": "31.744449",
            "中心经度": "110.480761",
            "中心纬度": "31.589684",
            "子节点个数": "0",
            "级别": "city",
            "父节点编码": "420000",
            "acroutes": "100000"
        },
        {
            "ID": "181",
            "节点编码": "430100",
            "cityName": "长沙市",
            "lon": "112.982279",
            "lat": "28.19409",
            "中心经度": "113.158697",
            "中心纬度": "28.224232",
            "子节点个数": "9",
            "级别": "city",
            "父节点编码": "430000",
            "acroutes": "100000"
        },
        {
            "ID": "182",
            "节点编码": "430200",
            "cityName": "株洲市",
            "lon": "113.151737",
            "lat": "27.835806",
            "中心经度": "113.522078",
            "中心纬度": "27.11883",
            "子节点个数": "9",
            "级别": "city",
            "父节点编码": "430000",
            "acroutes": "100000"
        },
        {
            "ID": "183",
            "节点编码": "430300",
            "cityName": "湘潭市",
            "lon": "112.944052",
            "lat": "27.82973",
            "中心经度": "112.608495",
            "中心纬度": "27.72863",
            "子节点个数": "5",
            "级别": "city",
            "父节点编码": "430000",
            "acroutes": "100000"
        },
        {
            "ID": "184",
            "节点编码": "430400",
            "cityName": "衡阳市",
            "lon": "112.607693",
            "lat": "26.900358",
            "中心经度": "112.579689",
            "中心纬度": "26.792402",
            "子节点个数": "12",
            "级别": "city",
            "父节点编码": "430000",
            "acroutes": "100000"
        },
        {
            "ID": "185",
            "节点编码": "430500",
            "cityName": "邵阳市",
            "lon": "111.46923",
            "lat": "27.237842",
            "中心经度": "110.880659",
            "中心纬度": "26.912035",
            "子节点个数": "12",
            "级别": "city",
            "父节点编码": "430000",
            "acroutes": "100000"
        },
        {
            "ID": "186",
            "节点编码": "430600",
            "cityName": "岳阳市",
            "lon": "113.132855",
            "lat": "29.37029",
            "中心经度": "113.259661",
            "中心纬度": "29.064701",
            "子节点个数": "9",
            "级别": "city",
            "父节点编码": "430000",
            "acroutes": "100000"
        },
        {
            "ID": "187",
            "节点编码": "430700",
            "cityName": "常德市",
            "lon": "111.691347",
            "lat": "29.040225",
            "中心经度": "111.524565",
            "中心纬度": "29.299744",
            "子节点个数": "9",
            "级别": "city",
            "父节点编码": "430000",
            "acroutes": "100000"
        },
        {
            "ID": "188",
            "节点编码": "430800",
            "cityName": "张家界市",
            "lon": "110.479921",
            "lat": "29.127401",
            "中心经度": "110.531625",
            "中心纬度": "29.390312",
            "子节点个数": "4",
            "级别": "city",
            "父节点编码": "430000",
            "acroutes": "100000"
        },
        {
            "ID": "189",
            "节点编码": "430900",
            "cityName": "益阳市",
            "lon": "112.355042",
            "lat": "28.570066",
            "中心经度": "111.958046",
            "中心纬度": "28.573867",
            "子节点个数": "6",
            "级别": "city",
            "父节点编码": "430000",
            "acroutes": "100000"
        },
        {
            "ID": "190",
            "节点编码": "431000",
            "cityName": "郴州市",
            "lon": "113.032067",
            "lat": "25.793589",
            "中心经度": "113.142071",
            "中心纬度": "25.813202",
            "子节点个数": "11",
            "级别": "city",
            "父节点编码": "430000",
            "acroutes": "100000"
        },
        {
            "ID": "191",
            "节点编码": "431100",
            "cityName": "永州市",
            "lon": "111.608019",
            "lat": "26.434516",
            "中心经度": "111.734581",
            "中心纬度": "25.774386",
            "子节点个数": "11",
            "级别": "city",
            "父节点编码": "430000",
            "acroutes": "100000"
        },
        {
            "ID": "192",
            "节点编码": "431200",
            "cityName": "怀化市",
            "lon": "109.97824",
            "lat": "27.550082",
            "中心经度": "110.082325",
            "中心纬度": "27.552517",
            "子节点个数": "12",
            "级别": "city",
            "父节点编码": "430000",
            "acroutes": "100000"
        },
        {
            "ID": "193",
            "节点编码": "431300",
            "cityName": "娄底市",
            "lon": "112.008497",
            "lat": "27.728136",
            "中心经度": "111.617993",
            "中心纬度": "27.73631",
            "子节点个数": "5",
            "级别": "city",
            "父节点编码": "430000",
            "acroutes": "100000"
        },
        {
            "ID": "194",
            "节点编码": "433100",
            "cityName": "湘西土家族苗族自治州",
            "lon": "109.739735",
            "lat": "28.314296",
            "中心经度": "109.731854",
            "中心纬度": "28.694703",
            "子节点个数": "8",
            "级别": "city",
            "父节点编码": "430000",
            "acroutes": "100000"
        },
        {
            "ID": "195",
            "节点编码": "440100",
            "cityName": "广州市",
            "lon": "113.280637",
            "lat": "23.125178",
            "中心经度": "113.544372",
            "中心纬度": "23.329249",
            "子节点个数": "11",
            "级别": "city",
            "父节点编码": "440000",
            "acroutes": "100000"
        },
        {
            "ID": "196",
            "节点编码": "440200",
            "cityName": "韶关市",
            "lon": "113.591544",
            "lat": "24.801322",
            "中心经度": "113.779323",
            "中心纬度": "24.81941",
            "子节点个数": "10",
            "级别": "city",
            "父节点编码": "440000",
            "acroutes": "100000"
        },
        {
            "ID": "197",
            "节点编码": "440300",
            "cityName": "深圳市",
            "lon": "114.085947",
            "lat": "22.547",
            "中心经度": "114.143142",
            "中心纬度": "22.643377",
            "子节点个数": "9",
            "级别": "city",
            "父节点编码": "440000",
            "acroutes": "100000"
        },
        {
            "ID": "198",
            "节点编码": "440400",
            "cityName": "珠海市",
            "lon": "113.553986",
            "lat": "22.224979",
            "中心经度": "113.337286",
            "中心纬度": "22.160135",
            "子节点个数": "3",
            "级别": "city",
            "父节点编码": "440000",
            "acroutes": "100000"
        },
        {
            "ID": "199",
            "节点编码": "440500",
            "cityName": "汕头市",
            "lon": "116.708463",
            "lat": "23.37102",
            "中心经度": "116.575361",
            "中心纬度": "23.322231",
            "子节点个数": "7",
            "级别": "city",
            "父节点编码": "440000",
            "acroutes": "100000"
        },
        {
            "ID": "200",
            "节点编码": "440600",
            "cityName": "佛山市",
            "lon": "113.122717",
            "lat": "23.028762",
            "中心经度": "112.949778",
            "中心纬度": "23.004314",
            "子节点个数": "5",
            "级别": "city",
            "父节点编码": "440000",
            "acroutes": "100000"
        },
        {
            "ID": "201",
            "节点编码": "440700",
            "cityName": "江门市",
            "lon": "113.094942",
            "lat": "22.590431",
            "中心经度": "112.676451",
            "中心纬度": "22.284348",
            "子节点个数": "7",
            "级别": "city",
            "父节点编码": "440000",
            "acroutes": "100000"
        },
        {
            "ID": "202",
            "节点编码": "440800",
            "cityName": "湛江市",
            "lon": "110.364977",
            "lat": "21.274898",
            "中心经度": "110.109828",
            "中心纬度": "21.047893",
            "子节点个数": "9",
            "级别": "city",
            "父节点编码": "440000",
            "acroutes": "100000"
        },
        {
            "ID": "203",
            "节点编码": "440900",
            "cityName": "茂名市",
            "lon": "110.919229",
            "lat": "21.659751",
            "中心经度": "110.958736",
            "中心纬度": "22.008884",
            "子节点个数": "5",
            "级别": "city",
            "父节点编码": "440000",
            "acroutes": "100000"
        },
        {
            "ID": "204",
            "节点编码": "441200",
            "cityName": "肇庆市",
            "lon": "112.472529",
            "lat": "23.051546",
            "中心经度": "112.210411",
            "中心纬度": "23.536359",
            "子节点个数": "8",
            "级别": "city",
            "父节点编码": "440000",
            "acroutes": "100000"
        },
        {
            "ID": "205",
            "节点编码": "441300",
            "cityName": "惠州市",
            "lon": "114.412599",
            "lat": "23.079404",
            "中心经度": "114.507032",
            "中心纬度": "23.234461",
            "子节点个数": "5",
            "级别": "city",
            "父节点编码": "440000",
            "acroutes": "100000"
        },
        {
            "ID": "206",
            "节点编码": "441400",
            "cityName": "梅州市",
            "lon": "116.117582",
            "lat": "24.299112",
            "中心经度": "116.084478",
            "中心纬度": "24.201791",
            "子节点个数": "8",
            "级别": "city",
            "父节点编码": "440000",
            "acroutes": "100000"
        },
        {
            "ID": "207",
            "节点编码": "441500",
            "cityName": "汕尾市",
            "lon": "115.364238",
            "lat": "22.774485",
            "中心经度": "115.53778",
            "中心纬度": "23.004558",
            "子节点个数": "4",
            "级别": "city",
            "父节点编码": "440000",
            "acroutes": "100000"
        },
        {
            "ID": "208",
            "节点编码": "441600",
            "cityName": "河源市",
            "lon": "114.697802",
            "lat": "23.746266",
            "中心经度": "114.962729",
            "中心纬度": "24.043541",
            "子节点个数": "6",
            "级别": "city",
            "父节点编码": "440000",
            "acroutes": "100000"
        },
        {
            "ID": "209",
            "节点编码": "441700",
            "cityName": "阳江市",
            "lon": "111.975107",
            "lat": "21.859222",
            "中心经度": "111.779569",
            "中心纬度": "22.02617",
            "子节点个数": "4",
            "级别": "city",
            "父节点编码": "440000",
            "acroutes": "100000"
        },
        {
            "ID": "210",
            "节点编码": "441800",
            "cityName": "清远市",
            "lon": "113.051227",
            "lat": "23.685022",
            "中心经度": "112.879397",
            "中心纬度": "24.313361",
            "子节点个数": "8",
            "级别": "city",
            "父节点编码": "440000",
            "acroutes": "100000"
        },
        {
            "ID": "211",
            "节点编码": "441900",
            "cityName": "东莞市",
            "lon": "113.746262",
            "lat": "23.046237",
            "中心经度": "113.879966",
            "中心纬度": "22.931879",
            "子节点个数": "0",
            "级别": "city",
            "父节点编码": "440000",
            "acroutes": "100000"
        },
        {
            "ID": "212",
            "节点编码": "442000",
            "cityName": "中山市",
            "lon": "113.382391",
            "lat": "22.521113",
            "中心经度": "113.398784",
            "中心纬度": "22.517323",
            "子节点个数": "0",
            "级别": "city",
            "父节点编码": "440000",
            "acroutes": "100000"
        },
        {
            "ID": "213",
            "节点编码": "445100",
            "cityName": "潮州市",
            "lon": "116.632301",
            "lat": "23.661701",
            "中心经度": "116.790217",
            "中心纬度": "23.783155",
            "子节点个数": "3",
            "级别": "city",
            "父节点编码": "440000",
            "acroutes": "100000"
        },
        {
            "ID": "214",
            "节点编码": "445200",
            "cityName": "揭阳市",
            "lon": "116.355733",
            "lat": "23.543778",
            "中心经度": "116.124317",
            "中心纬度": "23.334057",
            "子节点个数": "5",
            "级别": "city",
            "父节点编码": "440000",
            "acroutes": "100000"
        },
        {
            "ID": "215",
            "节点编码": "445300",
            "cityName": "云浮市",
            "lon": "112.044439",
            "lat": "22.929801",
            "中心经度": "111.798791",
            "中心纬度": "22.813664",
            "子节点个数": "5",
            "级别": "city",
            "父节点编码": "440000",
            "acroutes": "100000"
        },
        {
            "ID": "216",
            "节点编码": "450100",
            "cityName": "南宁市",
            "lon": "108.320004",
            "lat": "22.82402",
            "中心经度": "108.467546",
            "中心纬度": "23.055985",
            "子节点个数": "12",
            "级别": "city",
            "父节点编码": "450000",
            "acroutes": "100000"
        },
        {
            "ID": "217",
            "节点编码": "450200",
            "cityName": "柳州市",
            "lon": "109.411703",
            "lat": "24.314617",
            "中心经度": "109.374902",
            "中心纬度": "24.94791",
            "子节点个数": "10",
            "级别": "city",
            "父节点编码": "450000",
            "acroutes": "100000"
        },
        {
            "ID": "218",
            "节点编码": "450300",
            "cityName": "桂林市",
            "lon": "110.299121",
            "lat": "25.274215",
            "中心经度": "110.518333",
            "中心纬度": "25.35549",
            "子节点个数": "17",
            "级别": "city",
            "父节点编码": "450000",
            "acroutes": "100000"
        },
        {
            "ID": "219",
            "节点编码": "450400",
            "cityName": "梧州市",
            "lon": "111.297604",
            "lat": "23.474803",
            "中心经度": "110.99512",
            "中心纬度": "23.479776",
            "子节点个数": "7",
            "级别": "city",
            "父节点编码": "450000",
            "acroutes": "100000"
        },
        {
            "ID": "220",
            "节点编码": "450500",
            "cityName": "北海市",
            "lon": "109.119254",
            "lat": "21.473343",
            "中心经度": "109.343711",
            "中心纬度": "21.665234",
            "子节点个数": "4",
            "级别": "city",
            "父节点编码": "450000",
            "acroutes": "100000"
        },
        {
            "ID": "221",
            "节点编码": "450600",
            "cityName": "防城港市",
            "lon": "108.345478",
            "lat": "21.614631",
            "中心经度": "108.016067",
            "中心纬度": "21.869663",
            "子节点个数": "4",
            "级别": "city",
            "父节点编码": "450000",
            "acroutes": "100000"
        },
        {
            "ID": "222",
            "节点编码": "450700",
            "cityName": "钦州市",
            "lon": "108.624175",
            "lat": "21.967127",
            "中心经度": "109.020264",
            "中心纬度": "22.171739",
            "子节点个数": "4",
            "级别": "city",
            "父节点编码": "450000",
            "acroutes": "100000"
        },
        {
            "ID": "223",
            "节点编码": "450800",
            "cityName": "贵港市",
            "lon": "109.602146",
            "lat": "23.0936",
            "中心经度": "110.00316",
            "中心纬度": "23.307229",
            "子节点个数": "5",
            "级别": "city",
            "父节点编码": "450000",
            "acroutes": "100000"
        },
        {
            "ID": "224",
            "节点编码": "450900",
            "cityName": "玉林市",
            "lon": "110.154393",
            "lat": "22.63136",
            "中心经度": "110.187226",
            "中心纬度": "22.440758",
            "子节点个数": "7",
            "级别": "city",
            "父节点编码": "450000",
            "acroutes": "100000"
        },
        {
            "ID": "225",
            "节点编码": "451000",
            "cityName": "百色市",
            "lon": "106.616285",
            "lat": "23.897742",
            "中心经度": "106.289767",
            "中心纬度": "23.986179",
            "子节点个数": "12",
            "级别": "city",
            "父节点编码": "450000",
            "acroutes": "100000"
        },
        {
            "ID": "226",
            "节点编码": "451100",
            "cityName": "贺州市",
            "lon": "111.552056",
            "lat": "24.414141",
            "中心经度": "111.366008",
            "中心纬度": "24.358064",
            "子节点个数": "5",
            "级别": "city",
            "父节点编码": "450000",
            "acroutes": "100000"
        },
        {
            "ID": "227",
            "节点编码": "451200",
            "cityName": "河池市",
            "lon": "108.062105",
            "lat": "24.695899",
            "中心经度": "107.845852",
            "中心纬度": "24.642393",
            "子节点个数": "11",
            "级别": "city",
            "父节点编码": "450000",
            "acroutes": "100000"
        },
        {
            "ID": "228",
            "节点编码": "451300",
            "cityName": "来宾市",
            "lon": "109.229772",
            "lat": "23.733766",
            "中心经度": "109.416662",
            "中心纬度": "23.851919",
            "子节点个数": "6",
            "级别": "city",
            "父节点编码": "450000",
            "acroutes": "100000"
        },
        {
            "ID": "229",
            "节点编码": "451400",
            "cityName": "崇左市",
            "lon": "107.353926",
            "lat": "22.404108",
            "中心经度": "107.277353",
            "中心纬度": "22.502179",
            "子节点个数": "7",
            "级别": "city",
            "父节点编码": "450000",
            "acroutes": "100000"
        },
        {
            "ID": "230",
            "节点编码": "460100",
            "cityName": "海口市",
            "lon": "110.33119",
            "lat": "20.031971",
            "中心经度": "110.422966",
            "中心纬度": "19.852113",
            "子节点个数": "4",
            "级别": "city",
            "父节点编码": "460000",
            "acroutes": "100000"
        },
        {
            "ID": "231",
            "节点编码": "460200",
            "cityName": "三亚市",
            "lon": "109.508268",
            "lat": "18.247872",
            "中心经度": "109.421656",
            "中心纬度": "18.362263",
            "子节点个数": "4",
            "级别": "city",
            "父节点编码": "460000",
            "acroutes": "100000"
        },
        {
            "ID": "232",
            "节点编码": "460300",
            "cityName": "三沙市",
            "lon": "112.34882",
            "lat": "16.831039",
            "中心经度": "113.343872",
            "中心纬度": "8.21455",
            "子节点个数": "2",
            "级别": "city",
            "父节点编码": "460000",
            "acroutes": "100000"
        },
        {
            "ID": "233",
            "节点编码": "460400",
            "cityName": "儋州市",
            "lon": "109.576782",
            "lat": "19.517486",
            "中心经度": "109.390059",
            "中心纬度": "19.579264",
            "子节点个数": "0",
            "级别": "city",
            "父节点编码": "460000",
            "acroutes": "100000"
        },
        {
            "ID": "234",
            "节点编码": "469001",
            "cityName": "五指山市",
            "lon": "109.516662",
            "lat": "18.776921",
            "中心经度": "109.511892",
            "中心纬度": "18.824035",
            "子节点个数": "0",
            "级别": "city",
            "父节点编码": "460000",
            "acroutes": "100000"
        },
        {
            "ID": "235",
            "节点编码": "469002",
            "cityName": "琼海市",
            "lon": "110.466785",
            "lat": "19.246011",
            "中心经度": "110.421962",
            "中心纬度": "19.210377",
            "子节点个数": "0",
            "级别": "city",
            "父节点编码": "460000",
            "acroutes": "100000"
        },
        {
            "ID": "236",
            "节点编码": "469005",
            "cityName": "文昌市",
            "lon": "110.753975",
            "lat": "19.612986",
            "中心经度": "110.788535",
            "中心纬度": "19.747363",
            "子节点个数": "0",
            "级别": "city",
            "父节点编码": "460000",
            "acroutes": "100000"
        },
        {
            "ID": "237",
            "节点编码": "469006",
            "cityName": "万宁市",
            "lon": "110.388793",
            "lat": "18.796216",
            "中心经度": "110.324496",
            "中心纬度": "18.830445",
            "子节点个数": "0",
            "级别": "city",
            "父节点编码": "460000",
            "acroutes": "100000"
        },
        {
            "ID": "238",
            "节点编码": "469007",
            "cityName": "东方市",
            "lon": "108.653789",
            "lat": "19.10198",
            "中心经度": "108.818801",
            "中心纬度": "18.996184",
            "子节点个数": "0",
            "级别": "city",
            "父节点编码": "460000",
            "acroutes": "100000"
        },
        {
            "ID": "239",
            "节点编码": "469021",
            "cityName": "定安县",
            "lon": "110.349235",
            "lat": "19.684966",
            "中心经度": "110.312936",
            "中心纬度": "19.483405",
            "子节点个数": "0",
            "级别": "city",
            "父节点编码": "460000",
            "acroutes": "100000"
        },
        {
            "ID": "240",
            "节点编码": "469022",
            "cityName": "屯昌县",
            "lon": "110.102773",
            "lat": "19.362916",
            "中心经度": "110.055723",
            "中心纬度": "19.342208",
            "子节点个数": "0",
            "级别": "city",
            "父节点编码": "460000",
            "acroutes": "100000"
        },
        {
            "ID": "241",
            "节点编码": "469023",
            "cityName": "澄迈县",
            "lon": "110.007147",
            "lat": "19.737095",
            "中心经度": "109.990417",
            "中心纬度": "19.700201",
            "子节点个数": "0",
            "级别": "city",
            "父节点编码": "460000",
            "acroutes": "100000"
        },
        {
            "ID": "242",
            "节点编码": "469024",
            "cityName": "临高县",
            "lon": "109.687697",
            "lat": "19.908293",
            "中心经度": "109.71548",
            "中心纬度": "19.809704",
            "子节点个数": "0",
            "级别": "city",
            "父节点编码": "460000",
            "acroutes": "100000"
        },
        {
            "ID": "243",
            "节点编码": "469025",
            "cityName": "白沙黎族自治县",
            "lon": "109.452606",
            "lat": "19.224584",
            "中心经度": "109.351743",
            "中心纬度": "19.20989",
            "子节点个数": "0",
            "级别": "city",
            "父节点编码": "460000",
            "acroutes": "100000"
        },
        {
            "ID": "244",
            "节点编码": "469026",
            "cityName": "昌江黎族自治县",
            "lon": "109.053351",
            "lat": "19.260968",
            "中心经度": "108.993675",
            "中心纬度": "19.226048",
            "子节点个数": "0",
            "级别": "city",
            "父节点编码": "460000",
            "acroutes": "100000"
        },
        {
            "ID": "245",
            "节点编码": "469027",
            "cityName": "乐东黎族自治县",
            "lon": "109.175444",
            "lat": "18.74758",
            "中心经度": "109.029671",
            "中心纬度": "18.639822",
            "子节点个数": "0",
            "级别": "city",
            "父节点编码": "460000",
            "acroutes": "100000"
        },
        {
            "ID": "246",
            "节点编码": "469028",
            "cityName": "陵水黎族自治县",
            "lon": "110.037218",
            "lat": "18.505006",
            "中心经度": "109.951436",
            "中心纬度": "18.549546",
            "子节点个数": "0",
            "级别": "city",
            "父节点编码": "460000",
            "acroutes": "100000"
        },
        {
            "ID": "247",
            "节点编码": "469029",
            "cityName": "保亭黎族苗族自治县",
            "lon": "109.70245",
            "lat": "18.636371",
            "中心经度": "109.650759",
            "中心纬度": "18.589686",
            "子节点个数": "0",
            "级别": "city",
            "父节点编码": "460000",
            "acroutes": "100000"
        },
        {
            "ID": "248",
            "节点编码": "469030",
            "cityName": "琼中黎族苗族自治县",
            "lon": "109.839996",
            "lat": "19.03557",
            "中心经度": "109.854584",
            "中心纬度": "19.033919",
            "子节点个数": "0",
            "级别": "city",
            "父节点编码": "460000",
            "acroutes": "100000"
        },
        {
            "ID": "249",
            "节点编码": "510100",
            "cityName": "成都市",
            "lon": "104.065735",
            "lat": "30.659462",
            "中心经度": "103.931804",
            "中心纬度": "30.652329",
            "子节点个数": "20",
            "级别": "city",
            "父节点编码": "510000",
            "acroutes": "100000"
        },
        {
            "ID": "250",
            "节点编码": "510300",
            "cityName": "自贡市",
            "lon": "104.773447",
            "lat": "29.352765",
            "中心经度": "104.685446",
            "中心纬度": "29.28421",
            "子节点个数": "6",
            "级别": "city",
            "父节点编码": "510000",
            "acroutes": "100000"
        },
        {
            "ID": "251",
            "节点编码": "510400",
            "cityName": "攀枝花市",
            "lon": "101.716007",
            "lat": "26.580446",
            "中心经度": "101.625394",
            "中心纬度": "26.755869",
            "子节点个数": "5",
            "级别": "city",
            "父节点编码": "510000",
            "acroutes": "100000"
        },
        {
            "ID": "252",
            "节点编码": "510500",
            "cityName": "泸州市",
            "lon": "105.443348",
            "lat": "28.889138",
            "子节点个数": "7",
            "级别": "city",
            "父节点编码": "510000",
            "acroutes": "100000"
        },
        {
            "ID": "253",
            "节点编码": "510600",
            "cityName": "德阳市",
            "lon": "104.398651",
            "lat": "31.127991",
            "中心经度": "104.436756",
            "中心纬度": "31.128701",
            "子节点个数": "6",
            "级别": "city",
            "父节点编码": "510000",
            "acroutes": "100000"
        },
        {
            "ID": "254",
            "节点编码": "510700",
            "cityName": "绵阳市",
            "lon": "104.741722",
            "lat": "31.46402",
            "中心经度": "104.704392",
            "中心纬度": "31.850919",
            "子节点个数": "9",
            "级别": "city",
            "父节点编码": "510000",
            "acroutes": "100000"
        },
        {
            "ID": "255",
            "节点编码": "510800",
            "cityName": "广元市",
            "lon": "105.829757",
            "lat": "32.433668",
            "中心经度": "105.78583",
            "中心纬度": "32.26157",
            "子节点个数": "7",
            "级别": "city",
            "父节点编码": "510000",
            "acroutes": "100000"
        },
        {
            "ID": "256",
            "节点编码": "510900",
            "cityName": "遂宁市",
            "lon": "105.571331",
            "lat": "30.513311",
            "中心经度": "105.475016",
            "中心纬度": "30.630107",
            "子节点个数": "5",
            "级别": "city",
            "父节点编码": "510000",
            "acroutes": "100000"
        },
        {
            "ID": "257",
            "节点编码": "511000",
            "cityName": "内江市",
            "lon": "105.066138",
            "lat": "29.58708",
            "中心经度": "104.913978",
            "中心纬度": "29.638381",
            "子节点个数": "5",
            "级别": "city",
            "父节点编码": "510000",
            "acroutes": "100000"
        },
        {
            "ID": "258",
            "节点编码": "511100",
            "cityName": "乐山市",
            "lon": "103.761263",
            "lat": "29.582024",
            "中心经度": "103.571823",
            "中心纬度": "29.214311",
            "子节点个数": "11",
            "级别": "city",
            "父节点编码": "510000",
            "acroutes": "100000"
        },
        {
            "ID": "259",
            "节点编码": "511300",
            "cityName": "南充市",
            "lon": "106.082974",
            "lat": "30.795281",
            "中心经度": "106.207711",
            "中心纬度": "31.195136",
            "子节点个数": "9",
            "级别": "city",
            "父节点编码": "510000",
            "acroutes": "100000"
        },
        {
            "ID": "260",
            "节点编码": "511400",
            "cityName": "眉山市",
            "lon": "103.831788",
            "lat": "30.048318",
            "中心经度": "103.754827",
            "中心纬度": "29.924767",
            "子节点个数": "6",
            "级别": "city",
            "父节点编码": "510000",
            "acroutes": "100000"
        },
        {
            "ID": "261",
            "节点编码": "511500",
            "cityName": "宜宾市",
            "lon": "104.630825",
            "lat": "28.760189",
            "中心经度": "104.637629",
            "中心纬度": "28.572053",
            "子节点个数": "10",
            "级别": "city",
            "父节点编码": "510000",
            "acroutes": "100000"
        },
        {
            "ID": "262",
            "节点编码": "511600",
            "cityName": "广安市",
            "lon": "106.633369",
            "lat": "30.456398",
            "中心经度": "106.666151",
            "中心纬度": "30.42449",
            "子节点个数": "6",
            "级别": "city",
            "父节点编码": "510000",
            "acroutes": "100000"
        },
        {
            "ID": "263",
            "节点编码": "511700",
            "cityName": "达州市",
            "lon": "107.502262",
            "lat": "31.209484",
            "中心经度": "107.650611",
            "中心纬度": "31.367469",
            "子节点个数": "7",
            "级别": "city",
            "父节点编码": "510000",
            "acroutes": "100000"
        },
        {
            "ID": "264",
            "节点编码": "511800",
            "cityName": "雅安市",
            "lon": "103.001033",
            "lat": "29.987722",
            "中心经度": "102.665156",
            "中心纬度": "29.914326",
            "子节点个数": "8",
            "级别": "city",
            "父节点编码": "510000",
            "acroutes": "100000"
        },
        {
            "ID": "265",
            "节点编码": "511900",
            "cityName": "巴中市",
            "lon": "106.753669",
            "lat": "31.858809",
            "中心经度": "107.041958",
            "中心纬度": "32.016794",
            "子节点个数": "5",
            "级别": "city",
            "父节点编码": "510000",
            "acroutes": "100000"
        },
        {
            "ID": "266",
            "节点编码": "512000",
            "cityName": "资阳市",
            "lon": "104.641917",
            "lat": "30.122211",
            "中心经度": "105.118328",
            "中心纬度": "30.098408",
            "子节点个数": "3",
            "级别": "city",
            "父节点编码": "510000",
            "acroutes": "100000"
        },
        {
            "ID": "267",
            "节点编码": "513200",
            "cityName": "阿坝藏族羌族自治州",
            "lon": "102.221374",
            "lat": "31.899792",
            "中心经度": "102.612554",
            "中心纬度": "32.409135",
            "子节点个数": "13",
            "级别": "city",
            "父节点编码": "510000",
            "acroutes": "100000"
        },
        {
            "ID": "268",
            "节点编码": "513300",
            "cityName": "甘孜藏族自治州",
            "lon": "101.963815",
            "lat": "30.050663",
            "中心经度": "99.98712",
            "中心纬度": "30.97906",
            "子节点个数": "18",
            "级别": "city",
            "父节点编码": "510000",
            "acroutes": "100000"
        },
        {
            "ID": "269",
            "节点编码": "513400",
            "cityName": "凉山彝族自治州",
            "lon": "102.258746",
            "lat": "27.886762",
            "中心经度": "102.08054",
            "中心纬度": "27.889541",
            "子节点个数": "17",
            "级别": "city",
            "父节点编码": "510000",
            "acroutes": "100000"
        },
        {
            "ID": "270",
            "节点编码": "520100",
            "cityName": "贵阳市",
            "lon": "106.713478",
            "lat": "26.578343",
            "中心经度": "106.711127",
            "中心纬度": "26.84011",
            "子节点个数": "10",
            "级别": "city",
            "父节点编码": "520000",
            "acroutes": "100000"
        },
        {
            "ID": "271",
            "节点编码": "520200",
            "cityName": "六盘水市",
            "lon": "104.846743",
            "lat": "26.584643",
            "中心经度": "104.89694",
            "中心纬度": "26.128029",
            "子节点个数": "4",
            "级别": "city",
            "父节点编码": "520000",
            "acroutes": "100000"
        },
        {
            "ID": "272",
            "节点编码": "520300",
            "cityName": "遵义市",
            "lon": "106.937265",
            "lat": "27.706626",
            "中心经度": "107.089441",
            "中心纬度": "28.168743",
            "子节点个数": "14",
            "级别": "city",
            "父节点编码": "520000",
            "acroutes": "100000"
        },
        {
            "ID": "273",
            "节点编码": "520400",
            "cityName": "安顺市",
            "lon": "105.932188",
            "lat": "26.245544",
            "中心经度": "105.952866",
            "中心纬度": "25.993386",
            "子节点个数": "6",
            "级别": "city",
            "父节点编码": "520000",
            "acroutes": "100000"
        },
        {
            "ID": "274",
            "节点编码": "520500",
            "cityName": "毕节市",
            "lon": "105.28501",
            "lat": "27.301693",
            "中心经度": "105.550244",
            "中心纬度": "27.113787",
            "子节点个数": "8",
            "级别": "city",
            "父节点编码": "520000",
            "acroutes": "100000"
        },
        {
            "ID": "275",
            "节点编码": "520600",
            "cityName": "铜仁市",
            "lon": "109.191555",
            "lat": "27.718346",
            "中心经度": "108.546322",
            "中心纬度": "27.969966",
            "子节点个数": "10",
            "级别": "city",
            "父节点编码": "520000",
            "acroutes": "100000"
        },
        {
            "ID": "276",
            "节点编码": "522300",
            "cityName": "黔西南布依族苗族自治州",
            "lon": "104.897971",
            "lat": "25.08812",
            "中心经度": "105.466954",
            "中心纬度": "25.263792",
            "子节点个数": "8",
            "级别": "city",
            "父节点编码": "520000",
            "acroutes": "100000"
        },
        {
            "ID": "277",
            "节点编码": "522600",
            "cityName": "黔东南苗族侗族自治州",
            "lon": "107.977488",
            "lat": "26.583352",
            "中心经度": "108.560041",
            "中心纬度": "26.50434",
            "子节点个数": "16",
            "级别": "city",
            "父节点编码": "520000",
            "acroutes": "100000"
        },
        {
            "ID": "278",
            "节点编码": "522700",
            "cityName": "黔南布依族苗族自治州",
            "lon": "107.517156",
            "lat": "26.258219",
            "中心经度": "107.254401",
            "中心纬度": "26.014436",
            "子节点个数": "12",
            "级别": "city",
            "父节点编码": "520000",
            "acroutes": "100000"
        },
        {
            "ID": "279",
            "节点编码": "530100",
            "cityName": "昆明市",
            "lon": "102.712251",
            "lat": "25.040609",
            "中心经度": "102.87442",
            "中心纬度": "25.387092",
            "子节点个数": "14",
            "级别": "city",
            "父节点编码": "530000",
            "acroutes": "100000"
        },
        {
            "ID": "280",
            "节点编码": "530300",
            "cityName": "曲靖市",
            "lon": "103.797851",
            "lat": "25.501557",
            "中心经度": "103.939179",
            "中心纬度": "25.705863",
            "子节点个数": "9",
            "级别": "city",
            "父节点编码": "530000",
            "acroutes": "100000"
        },