{
    "province": [
        {
            "ID": "0",
            "节点编码": "110000",
            "provinceName": "北京市",
            "lon": "116.405285",
            "lat": "39.904989",
            "中心经度": "116.41995",
            "中心纬度": "40.18994",
            "子节点个数": "16",
            "级别": "province",
            "父节点编码": "100000",
            "acroutes": "100000",
            "timelabel":"12月1日"
        },
        {
            "ID": "26",
            "节点编码": "610000",
            "provinceName": "陕西省",
            "lon": "108.948024",
            "lat": "34.263161",
            "中心经度": "108.887114",
            "中心纬度": "35.263661",
            "子节点个数": "10",
            "级别": "province",
            "父节点编码": "100000",
            "acroutes": "100000",
            "timelabel":"12月2日"
        },
        {
            "ID": "30",
            "节点编码": "650000",
            "provinceName": "新疆维吾尔自治区",
            "lon": "87.617733",
            "lat": "43.792818",
            "中心经度": "85.294711",
            "中心纬度": "41.371801",
            "子节点个数": "24",
            "级别": "province",
            "父节点编码": "100000",
            "acroutes": "100000",
            "timelabel":"12月4日"

        },
        {
            "ID": "25",
            "节点编码": "540000",
            "provinceName": "西藏自治区",
            "lon": "91.132212",
            "lat": "29.660361",
            "中心经度": "88.388277",
            "中心纬度": "31.56375",
            "子节点个数": "7",
            "级别": "province",
            "父节点编码": "100000",
            "acroutes": "100000",
            "timelabel":"12月6日"

        },
        {
            "ID": "22",
            "节点编码": "510000",
            "provinceName": "四川省",
            "lon": "104.065735",
            "lat": "30.659462",
            "中心经度": "102.693453",
            "中心纬度": "30.674545",
            "子节点个数": "21",
            "级别": "province",
            "父节点编码": "100000",
            "acroutes": "100000",
            "timelabel":"12月7日"

        },
        {
            "ID": "18",
            "节点编码": "440000",
            "provinceName": "广东省",
            "lon": "113.280637",
            "lat": "23.125178",
            "中心经度": "113.429919",
            "中心纬度": "23.334643",
            "子节点个数": "21",
            "级别": "province",
            "父节点编码": "100000",
            "acroutes": "100000",
            "timelabel":"12月9日"

        },
        {
            "ID": "14",
            "节点编码": "370000",
            "provinceName": "山东省",
            "lon": "117.000923",
            "lat": "36.675807",
            "中心经度": "118.187759",
            "中心纬度": "36.376092",
            "子节点个数": "16",
            "级别": "province",
            "父节点编码": "100000",
            "acroutes": "100000",
            "timelabel":"12月11日"

        }
    ]
}